{
  "type": "FeatureCollection",
  "features": [
    {
      "type": "Feature",
      "geometry": { "type": "Point", "coordinates": [ -82.90728, 32.53894 ] },
      "properties": {
        "PositionTitle": "OCA Transition to Practice RN (TTP)",
        "PositionURI": "https://www.usajobs.gov:443/GetJob/ViewDetails/769408300",
        "LocationName": "Dublin, Georgia",
        "Salary": "$71,954 - $102,166 per year"
      }
    },
    {
      "type": "Feature",
      "geometry": { "type": "Point", "coordinates": [ -79.90433, 40.490166 ] },
      "properties": {
        "PositionTitle": "Licensed Practical Nurse- Community Living Center",
        "PositionURI": "https://www.usajobs.gov:443/GetJob/ViewDetails/776366000",
        "LocationName": "Aspinwall, Pennsylvania",
        "Salary": "$43,449 - $75,780 per year"
      }
    },
    {
      "type": "Feature",
      "geometry": { "type": "Point", "coordinates": [ -81.5141, 41.0842 ] },
      "properties": {
        "PositionTitle": "Nurse Practitioner (Primary Care)",
        "PositionURI": "https://www.usajobs.gov:443/GetJob/ViewDetails/784948100",
        "LocationName": "Akron, Ohio",
        "Salary": "$106,907 - $167,773 per year"
      }
    },
    {
      "type": "Feature",
      "geometry": { "type": "Point", "coordinates": [ -81.3716, 40.7978 ] },
      "properties": {
        "PositionTitle": "Nurse Practitioner (Primary Care)",
        "PositionURI": "https://www.usajobs.gov:443/GetJob/ViewDetails/784948100",
        "LocationName": "Canton, Ohio",
        "Salary": "$106,907 - $167,773 per year"
      }
    },
    {
      "type": "Feature",
      "geometry": { "type": "Point", "coordinates": [ -81.690575, 41.504494 ] },
      "properties": {
        "PositionTitle": "Nurse Practitioner (Primary Care)",
        "PositionURI": "https://www.usajobs.gov:443/GetJob/ViewDetails/784948100",
        "LocationName": "Cleveland, Ohio",
        "Salary": "$106,907 - $167,773 per year"
      }
    },
    {
      "type": "Feature",
      "geometry": { "type": "Point", "coordinates": [ -80.5807, 40.6206 ] },
      "properties": {
        "PositionTitle": "Nurse Practitioner (Primary Care)",
        "PositionURI": "https://www.usajobs.gov:443/GetJob/ViewDetails/784948100",
        "LocationName": "East Liverpool, Ohio",
        "Salary": "$106,907 - $167,773 per year"
      }
    },
    {
      "type": "Feature",
      "geometry": { "type": "Point", "coordinates": [ -81.23604, 41.718586 ] },
      "properties": {
        "PositionTitle": "Nurse Practitioner (Primary Care)",
        "PositionURI": "https://www.usajobs.gov:443/GetJob/ViewDetails/784948100",
        "LocationName": "Lake County, Ohio",
        "Salary": "$106,907 - $167,773 per year"
      }
    },
    {
      "type": "Feature",
      "geometry": { "type": "Point", "coordinates": [ -82.1781, 41.4682 ] },
      "properties": {
        "PositionTitle": "Nurse Practitioner (Primary Care)",
        "PositionURI": "https://www.usajobs.gov:443/GetJob/ViewDetails/784948100",
        "LocationName": "Lorain, Ohio",
        "Salary": "$106,907 - $167,773 per year"
      }
    },
    {
      "type": "Feature",
      "geometry": { "type": "Point", "coordinates": [ -82.51481, 40.758514 ] },
      "properties": {
        "PositionTitle": "Nurse Practitioner (Primary Care)",
        "PositionURI": "https://www.usajobs.gov:443/GetJob/ViewDetails/784948100",
        "LocationName": "Mansfield, Ohio",
        "Salary": "$106,907 - $167,773 per year"
      }
    },
    {
      "type": "Feature",
      "geometry": { "type": "Point", "coordinates": [ -81.446396, 40.489765 ] },
      "properties": {
        "PositionTitle": "Nurse Practitioner (Primary Care)",
        "PositionURI": "https://www.usajobs.gov:443/GetJob/ViewDetails/784948100",
        "LocationName": "New Philadelphia, Ohio",
        "Salary": "$106,907 - $167,773 per year"
      }
    },
    {
      "type": "Feature",
      "geometry": { "type": "Point", "coordinates": [ -81.73465, 41.383717 ] },
      "properties": {
        "PositionTitle": "Nurse Practitioner (Primary Care)",
        "PositionURI": "https://www.usajobs.gov:443/GetJob/ViewDetails/784948100",
        "LocationName": "Parma, Ohio",
        "Salary": "$106,907 - $167,773 per year"
      }
    },
    {
      "type": "Feature",
      "geometry": { "type": "Point", "coordinates": [ -81.2444, 41.1577 ] },
      "properties": {
        "PositionTitle": "Nurse Practitioner (Primary Care)",
        "PositionURI": "https://www.usajobs.gov:443/GetJob/ViewDetails/784948100",
        "LocationName": "Ravenna, Ohio",
        "Salary": "$106,907 - $167,773 per year"
      }
    },
    {
      "type": "Feature",
      "geometry": { "type": "Point", "coordinates": [ -82.707375, 41.44876 ] },
      "properties": {
        "PositionTitle": "Nurse Practitioner (Primary Care)",
        "PositionURI": "https://www.usajobs.gov:443/GetJob/ViewDetails/784948100",
        "LocationName": "Sandusky, Ohio",
        "Salary": "$106,907 - $167,773 per year"
      }
    },
    {
      "type": "Feature",
      "geometry": { "type": "Point", "coordinates": [ -80.8128, 41.2362 ] },
      "properties": {
        "PositionTitle": "Nurse Practitioner (Primary Care)",
        "PositionURI": "https://www.usajobs.gov:443/GetJob/ViewDetails/784948100",
        "LocationName": "Warren, Ohio",
        "Salary": "$106,907 - $167,773 per year"
      }
    },
    {
      "type": "Feature",
      "geometry": { "type": "Point", "coordinates": [ -80.65079, 41.0981 ] },
      "properties": {
        "PositionTitle": "Nurse Practitioner (Primary Care)",
        "PositionURI": "https://www.usajobs.gov:443/GetJob/ViewDetails/784948100",
        "LocationName": "Youngstown, Ohio",
        "Salary": "$106,907 - $167,773 per year"
      }
    },
    {
      "type": "Feature",
      "geometry": { "type": "Point", "coordinates": [ -69.7031, 44.2741 ] },
      "properties": {
        "PositionTitle": "Advanced Practice Nurse (Certified Nurse Anesthetist) - CRNA",
        "PositionURI": "https://www.usajobs.gov:443/GetJob/ViewDetails/794006900",
        "LocationName": "Togus, Maine",
        "Salary": "$177,241 - $264,008 per year"
      }
    },
    {
      "type": "Feature",
      "geometry": { "type": "Point", "coordinates": [ -71.411995, 41.823875 ] },
      "properties": {
        "PositionTitle": "CERTIFIED REGISTERED NURSE ANESTHETIST",
        "PositionURI": "https://www.usajobs.gov:443/GetJob/ViewDetails/794612100",
        "LocationName": "Providence, Rhode Island",
        "Salary": "$178,162 - $258,269 per year"
      }
    },
    {
      "type": "Feature",
      "geometry": { "type": "Point", "coordinates": [ -79.90433, 40.490166 ] },
      "properties": {
        "PositionTitle": "Registered Nurse - Community Living Center",
        "PositionURI": "https://www.usajobs.gov:443/GetJob/ViewDetails/799276700",
        "LocationName": "Aspinwall, Pennsylvania",
        "Salary": "$69,899 - $143,953 per year"
      }
    },
    {
      "type": "Feature",
      "geometry": { "type": "Point", "coordinates": [ -83.00301, 39.962 ] },
      "properties": {
        "PositionTitle": "Certified Registered Nurse Anesthetist Intermittent",
        "PositionURI": "https://www.usajobs.gov:443/GetJob/ViewDetails/799308700",
        "LocationName": "Columbus, Ohio",
        "Salary": "$146,863 - $212,902 per year"
      }
    },
    {
      "type": "Feature",
      "geometry": { "type": "Point", "coordinates": [ -71.274, 42.4917 ] },
      "properties": {
        "PositionTitle": "Registered Nurse-CLC Units",
        "PositionURI": "https://www.usajobs.gov:443/GetJob/ViewDetails/802330400",
        "LocationName": "Bedford, Massachusetts",
        "Salary": "$86,190 - $170,046 per year"
      }
    },
    {
      "type": "Feature",
      "geometry": { "type": "Point", "coordinates": [ -71.274, 42.4917 ] },
      "properties": {
        "PositionTitle": "Registered Nurse-Float",
        "PositionURI": "https://www.usajobs.gov:443/GetJob/ViewDetails/802331400",
        "LocationName": "Bedford, Massachusetts",
        "Salary": "$86,190 - $170,046 per year"
      }
    },
    {
      "type": "Feature",
      "geometry": { "type": "Point", "coordinates": [ -98.49462, 29.42449 ] },
      "properties": {
        "PositionTitle": "Advanced Practice Nurse-Certified Nurse Anesthetist-Open Continuous Announcement-Incentive",
        "PositionURI": "https://www.usajobs.gov:443/GetJob/ViewDetails/803800300",
        "LocationName": "San Antonio, Texas",
        "Salary": "$186,895 - $270,936 per year"
      }
    },
    {
      "type": "Feature",
      "geometry": { "type": "Point", "coordinates": [ -106.4874, 31.7591 ] },
      "properties": {
        "PositionTitle": "Licensed Vocational Nurse (PACT) - EDUCATION DEBT REDUCTION PROGRAM",
        "PositionURI": "https://www.usajobs.gov:443/GetJob/ViewDetails/803896500",
        "LocationName": "El Paso, Texas",
        "Salary": "$37,784 - $68,769 per year"
      }
    },
    {
      "type": "Feature",
      "geometry": { "type": "Point", "coordinates": [ -86.14996, 39.76691 ] },
      "properties": {
        "PositionTitle": "Nurse Practitioner (NP) - Wound Ostomy Certified",
        "PositionURI": "https://www.usajobs.gov:443/GetJob/ViewDetails/803953500",
        "LocationName": "Indianapolis, Indiana",
        "Salary": "$115,392 - $171,887 per year"
      }
    },
    {
      "type": "Feature",
      "geometry": { "type": "Point", "coordinates": [ -79.90433, 40.490166 ] },
      "properties": {
        "PositionTitle": "Nursing Assistant- Community Living Center",
        "PositionURI": "https://www.usajobs.gov:443/GetJob/ViewDetails/804058800",
        "LocationName": "Aspinwall, Pennsylvania",
        "Salary": "$48,933 - $63,610 per year"
      }
    },
    {
      "type": "Feature",
      "geometry": { "type": "Point", "coordinates": [ -83.74848, 42.281876 ] },
      "properties": {
        "PositionTitle": "Certified Registered Nurse Anesthetist",
        "PositionURI": "https://www.usajobs.gov:443/GetJob/ViewDetails/805265300",
        "LocationName": "Ann Arbor, Michigan",
        "Salary": "$151,300 - $243,754 per year"
      }
    },
    {
      "type": "Feature",
      "geometry": { "type": "Point", "coordinates": [ -108.56445, 39.06879 ] },
      "properties": {
        "PositionTitle": "Licensed Practical Nurse",
        "PositionURI": "https://www.usajobs.gov:443/GetJob/ViewDetails/805451400",
        "LocationName": "Grand Junction, Colorado",
        "Salary": "$45,721 - $76,310 per year"
      }
    },
    {
      "type": "Feature",
      "geometry": { "type": "Point", "coordinates": [ -104.813, 39.7087 ] },
      "properties": {
        "PositionTitle": "Nursing Assistant - Post Surgical/Rehab (Part-time)",
        "PositionURI": "https://www.usajobs.gov:443/GetJob/ViewDetails/805727900",
        "LocationName": "Aurora, Colorado",
        "Salary": "$46,091 - $59,915 per year"
      }
    },
    {
      "type": "Feature",
      "geometry": { "type": "Point", "coordinates": [ -104.813, 39.7087 ] },
      "properties": {
        "PositionTitle": "Nursing Assistant - Post Surgical/Rehab",
        "PositionURI": "https://www.usajobs.gov:443/GetJob/ViewDetails/805734900",
        "LocationName": "Aurora, Colorado",
        "Salary": "$46,091 - $59,915 per year"
      }
    },
    {
      "type": "Feature",
      "geometry": { "type": "Point", "coordinates": [ -101.479095, 32.25031 ] },
      "properties": {
        "PositionTitle": "Nursing Assistant (CLC)",
        "PositionURI": "https://www.usajobs.gov:443/GetJob/ViewDetails/806993800",
        "LocationName": "Big Spring, Texas",
        "Salary": "$38,251 - $56,779 per year"
      }
    },
    {
      "type": "Feature",
      "geometry": { "type": "Point", "coordinates": [ -108.56445, 39.06879 ] },
      "properties": {
        "PositionTitle": "Practical Nurse",
        "PositionURI": "https://www.usajobs.gov:443/GetJob/ViewDetails/807163900",
        "LocationName": "Grand Junction, Colorado",
        "Salary": "$47,870 - $79,904 per year"
      }
    },
    {
      "type": "Feature",
      "geometry": { "type": "Point", "coordinates": [ -96.7954, 32.778156 ] },
      "properties": {
        "PositionTitle": "Pain Management- Advanced Practice Nurse-Certified Nurse Practitioner-Open Continuous Announcement",
        "PositionURI": "https://www.usajobs.gov:443/GetJob/ViewDetails/807857200",
        "LocationName": "Dallas, Texas",
        "Salary": "$150,236 - $217,789 per year"
      }
    },
    {
      "type": "Feature",
      "geometry": { "type": "Point", "coordinates": [ -76.14739, 43.04999 ] },
      "properties": {
        "PositionTitle": "Registered Nurse - Med/Surg",
        "PositionURI": "https://www.usajobs.gov:443/GetJob/ViewDetails/807859600",
        "LocationName": "Syracuse, New York",
        "Salary": "$77,428 - $129,499 per year"
      }
    },
    {
      "type": "Feature",
      "geometry": { "type": "Point", "coordinates": [ -76.14739, 43.04999 ] },
      "properties": {
        "PositionTitle": "Registered Nurse- CLC",
        "PositionURI": "https://www.usajobs.gov:443/GetJob/ViewDetails/807860600",
        "LocationName": "Syracuse, New York",
        "Salary": "$77,428 - $129,499 per year"
      }
    },
    {
      "type": "Feature",
      "geometry": { "type": "Point", "coordinates": [ -80.05269, 26.714388 ] },
      "properties": {
        "PositionTitle": "Nursing Assistant - Multiple Areas",
        "PositionURI": "https://www.usajobs.gov:443/GetJob/ViewDetails/807870900",
        "LocationName": "West Palm Beach, Florida",
        "Salary": "$36,165 - $59,043 per year"
      }
    },
    {
      "type": "Feature",
      "geometry": { "type": "Point", "coordinates": [ -96.78177, 46.87591 ] },
      "properties": {
        "PositionTitle": "Nurse Anesthetist (Intermittent)",
        "PositionURI": "https://www.usajobs.gov:443/GetJob/ViewDetails/808829700",
        "LocationName": "Fargo, North Dakota",
        "Salary": "$200,000 - $237,920 per year"
      }
    },
    {
      "type": "Feature",
      "geometry": { "type": "Point", "coordinates": [ -105.50477, 44.293186 ] },
      "properties": {
        "PositionTitle": "Practical Nurse",
        "PositionURI": "https://www.usajobs.gov:443/GetJob/ViewDetails/809757800",
        "LocationName": "Gillette, Wyoming",
        "Salary": "$46,127 - $83,954 per year"
      }
    },
    {
      "type": "Feature",
      "geometry": { "type": "Point", "coordinates": [ -80.05269, 26.714388 ] },
      "properties": {
        "PositionTitle": "Practical Nurse_Community Living Center_OCA",
        "PositionURI": "https://www.usajobs.gov:443/GetJob/ViewDetails/809841300",
        "LocationName": "West Palm Beach, Florida",
        "Salary": "$44,857 - $74,238 per year"
      }
    },
    {
      "type": "Feature",
      "geometry": { "type": "Point", "coordinates": [ -108.56445, 39.06879 ] },
      "properties": {
        "PositionTitle": "Nurse Practitioner - Geriatrics, Community Living Center",
        "PositionURI": "https://www.usajobs.gov:443/GetJob/ViewDetails/810967700",
        "LocationName": "Grand Junction, Colorado",
        "Salary": "$107,293 - $178,864 per year"
      }
    },
    {
      "type": "Feature",
      "geometry": { "type": "Point", "coordinates": [ -101.479095, 32.25031 ] },
      "properties": {
        "PositionTitle": "Advanced Practice Nurse-Nurse Practitioner-Recruitment/Relocation Incentive-EDRP",
        "PositionURI": "https://www.usajobs.gov:443/GetJob/ViewDetails/811642300",
        "LocationName": "Big Spring, Texas",
        "Salary": "$97,518 - $167,051 per year"
      }
    },
    {
      "type": "Feature",
      "geometry": { "type": "Point", "coordinates": [ -80.07253, 36.119484 ] },
      "properties": {
        "PositionTitle": "Advanced Practice Nurse (Certified Nurse Anesthetist)",
        "PositionURI": "https://www.usajobs.gov:443/GetJob/ViewDetails/811770500",
        "LocationName": "Kernersville, North Carolina",
        "Salary": "$174,802 - $253,411 per year"
      }
    },
    {
      "type": "Feature",
      "geometry": { "type": "Point", "coordinates": [ -80.46936, 35.666935 ] },
      "properties": {
        "PositionTitle": "Advanced Practice Nurse (Certified Nurse Anesthetist)",
        "PositionURI": "https://www.usajobs.gov:443/GetJob/ViewDetails/811783300",
        "LocationName": "Salisbury, North Carolina",
        "Salary": "$173,154 - $251,019 per year"
      }
    },
    {
      "type": "Feature",
      "geometry": { "type": "Point", "coordinates": [ -98.339905, 40.92474 ] },
      "properties": {
        "PositionTitle": "Registered Nurse - Residential Rehabilitation Treatment Program  SIGN-ON BONUS ELIGIBLE",
        "PositionURI": "https://www.usajobs.gov:443/GetJob/ViewDetails/812051700",
        "LocationName": "Grand Island, Nebraska",
        "Salary": "$59,312 - $107,042 per year"
      }
    },
    {
      "type": "Feature",
      "geometry": { "type": "Point", "coordinates": [ -83.74848, 42.281876 ] },
      "properties": {
        "PositionTitle": "Nursing Assistant",
        "PositionURI": "https://www.usajobs.gov:443/GetJob/ViewDetails/812430300",
        "LocationName": "Ann Arbor, Michigan",
        "Salary": "$36,362 - $59,365 per year"
      }
    },
    {
      "type": "Feature",
      "geometry": { "type": "Point", "coordinates": [ -98.339905, 40.92474 ] },
      "properties": {
        "PositionTitle": "Licensed Practical Nurse - Mental Health RRTP- Intermittent",
        "PositionURI": "https://www.usajobs.gov:443/GetJob/ViewDetails/812664600",
        "LocationName": "Grand Island, Nebraska",
        "Salary": "$43,813 - $68,779 per year"
      }
    },
    {
      "type": "Feature",
      "geometry": { "type": "Point", "coordinates": [ -98.339905, 40.92474 ] },
      "properties": {
        "PositionTitle": "Nursing Assistant - Grand Island Community Living Center",
        "PositionURI": "https://www.usajobs.gov:443/GetJob/ViewDetails/813274900",
        "LocationName": "Grand Island, Nebraska",
        "Salary": "$37,425 - $61,100 per year"
      }
    },
    {
      "type": "Feature",
      "geometry": { "type": "Point", "coordinates": [ -81.97531, 33.47909 ] },
      "properties": {
        "PositionTitle": "Practical Nurse",
        "PositionURI": "https://www.usajobs.gov:443/GetJob/ViewDetails/813503600",
        "LocationName": "Augusta, Georgia",
        "Salary": "$40,953 - $74,538 per year"
      }
    },
    {
      "type": "Feature",
      "geometry": { "type": "Point", "coordinates": [ -122.32945, 47.60358 ] },
      "properties": {
        "PositionTitle": "Registered Nurse (Spinal Cord Injury-Outpatient)",
        "PositionURI": "https://www.usajobs.gov:443/GetJob/ViewDetails/813747300",
        "LocationName": "Seattle, Washington",
        "Salary": "$95,028 - $162,768 per year"
      }
    },
    {
      "type": "Feature",
      "geometry": { "type": "Point", "coordinates": [ -122.32945, 47.60358 ] },
      "properties": {
        "PositionTitle": "Registered Nurse (Spinal Cord Injury-Inpatient) OCA-FY 25-PUG",
        "PositionURI": "https://www.usajobs.gov:443/GetJob/ViewDetails/813766700",
        "LocationName": "Seattle, Washington",
        "Salary": "$95,028 - $162,768 per year"
      }
    },
    {
      "type": "Feature",
      "geometry": { "type": "Point", "coordinates": [ -83.74848, 42.281876 ] },
      "properties": {
        "PositionTitle": "Certified Registered Nurse Anesthetist",
        "PositionURI": "https://www.usajobs.gov:443/GetJob/ViewDetails/814124200",
        "LocationName": "Ann Arbor, Michigan",
        "Salary": "$151,300 - $243,754 per year"
      }
    },
    {
      "type": "Feature",
      "geometry": { "type": "Point", "coordinates": [ -104.813, 39.7087 ] },
      "properties": {
        "PositionTitle": "Licensed Practical Nurse (Inpatient SCI)",
        "PositionURI": "https://www.usajobs.gov:443/GetJob/ViewDetails/814176200",
        "LocationName": "Aurora, Colorado",
        "Salary": "$65,711 - $85,427 per year"
      }
    },
    {
      "type": "Feature",
      "geometry": { "type": "Point", "coordinates": [ -91.3958, 39.9356 ] },
      "properties": {
        "PositionTitle": "Advanced Practice Nurse (Primary Care Nurse Practitioner)",
        "PositionURI": "https://www.usajobs.gov:443/GetJob/ViewDetails/814323200",
        "LocationName": "Quincy, Illinois",
        "Salary": "$118,175 - $157,170 per year"
      }
    },
    {
      "type": "Feature",
      "geometry": { "type": "Point", "coordinates": [ -104.82173, 38.83311 ] },
      "properties": {
        "PositionTitle": "Practical Nurse",
        "PositionURI": "https://www.usajobs.gov:443/GetJob/ViewDetails/814483000",
        "LocationName": "Colorado Springs, Colorado",
        "Salary": "$49,937 - $81,008 per year"
      }
    },
    {
      "type": "Feature",
      "geometry": { "type": "Point", "coordinates": [ -74.0071, 40.7146 ] },
      "properties": {
        "PositionTitle": "Registered Nurse - Cardiac Catheterization/Electrophysiology Laboratory",
        "PositionURI": "https://www.usajobs.gov:443/GetJob/ViewDetails/814525700",
        "LocationName": "New York, New York",
        "Salary": "$101,186 - $168,691 per year"
      }
    },
    {
      "type": "Feature",
      "geometry": { "type": "Point", "coordinates": [ -81.94542, 33.432972 ] },
      "properties": {
        "PositionTitle": "Registered Nurse - Spinal Cord Injury",
        "PositionURI": "https://www.usajobs.gov:443/GetJob/ViewDetails/814603900",
        "LocationName": "Augusta, Georgia",
        "Salary": "$76,088 - $134,072 per year"
      }
    },
    {
      "type": "Feature",
      "geometry": { "type": "Point", "coordinates": [ -71.274, 42.4917 ] },
      "properties": {
        "PositionTitle": "Nursing Assistant (Float Pool)",
        "PositionURI": "https://www.usajobs.gov:443/GetJob/ViewDetails/814615500",
        "LocationName": "Bedford, Massachusetts",
        "Salary": "$39,966 - $65,248 per year"
      }
    },
    {
      "type": "Feature",
      "geometry": { "type": "Point", "coordinates": [ -98.339905, 40.92474 ] },
      "properties": {
        "PositionTitle": "Registered Nurse - Community Living Center",
        "PositionURI": "https://www.usajobs.gov:443/GetJob/ViewDetails/814721400",
        "LocationName": "Grand Island, Nebraska",
        "Salary": "$59,312 - $107,042 per year"
      }
    },
    {
      "type": "Feature",
      "geometry": { "type": "Point", "coordinates": [ -96.0429, 41.1569 ] },
      "properties": {
        "PositionTitle": "Licensed Practical Nurse - Papillion Community Living Center",
        "PositionURI": "https://www.usajobs.gov:443/GetJob/ViewDetails/815073100",
        "LocationName": "Papillion, Nebraska",
        "Salary": "$43,813 - $68,779 per year"
      }
    },
    {
      "type": "Feature",
      "geometry": { "type": "Point", "coordinates": [ -80.34012, 39.27942 ] },
      "properties": {
        "PositionTitle": "Certified Registered Nurse Anesthetist -Surgical Service",
        "PositionURI": "https://www.usajobs.gov:443/GetJob/ViewDetails/815075600",
        "LocationName": "Clarksburg, West Virginia",
        "Salary": "$150,464 - $224,612 per year"
      }
    },
    {
      "type": "Feature",
      "geometry": { "type": "Point", "coordinates": [ -81.94542, 33.432972 ] },
      "properties": {
        "PositionTitle": "Registered Nurse - Operating Room",
        "PositionURI": "https://www.usajobs.gov:443/GetJob/ViewDetails/815297500",
        "LocationName": "Augusta, Georgia",
        "Salary": "$74,256 - $136,988 per year"
      }
    },
    {
      "type": "Feature",
      "geometry": { "type": "Point", "coordinates": [ -93.74728, 32.514614 ] },
      "properties": {
        "PositionTitle": "Registered Nurse",
        "PositionURI": "https://www.usajobs.gov:443/GetJob/ViewDetails/815385500",
        "LocationName": "Shreveport, Louisiana",
        "Salary": "$62,813 - $133,026 per year"
      }
    },
    {
      "type": "Feature",
      "geometry": { "type": "Point", "coordinates": [ -101.479095, 32.25031 ] },
      "properties": {
        "PositionTitle": "Licensed Vocational Nurse - Community Living Center (CLC), EDRP",
        "PositionURI": "https://www.usajobs.gov:443/GetJob/ViewDetails/815488500",
        "LocationName": "Big Spring, Texas",
        "Salary": "$49,256 - $77,130 per year"
      }
    },
    {
      "type": "Feature",
      "geometry": { "type": "Point", "coordinates": [ -81.94542, 33.432972 ] },
      "properties": {
        "PositionTitle": "Registered Nurse - Outpatient Clinics",
        "PositionURI": "https://www.usajobs.gov:443/GetJob/ViewDetails/815517000",
        "LocationName": "Augusta, Georgia",
        "Salary": "$74,256 - $136,988 per year"
      }
    },
    {
      "type": "Feature",
      "geometry": { "type": "Point", "coordinates": [ -73.8299, 40.7139 ] },
      "properties": {
        "PositionTitle": "Nurse IV (CLC Site Manager)",
        "PositionURI": "https://www.usajobs.gov:443/GetJob/ViewDetails/815604800",
        "LocationName": "Queens, New York",
        "Salary": "$141,014 - $187,544 per year"
      }
    },
    {
      "type": "Feature",
      "geometry": { "type": "Point", "coordinates": [ -96.78177, 46.87591 ] },
      "properties": {
        "PositionTitle": "Registered Nurse - Medical/Surgical Unit",
        "PositionURI": "https://www.usajobs.gov:443/GetJob/ViewDetails/815829600",
        "LocationName": "Fargo, North Dakota",
        "Salary": "$70,428 - $117,409 per year"
      }
    },
    {
      "type": "Feature",
      "geometry": { "type": "Point", "coordinates": [ -77.433655, 37.5407 ] },
      "properties": {
        "PositionTitle": "Nursing Assistant",
        "PositionURI": "https://www.usajobs.gov:443/GetJob/ViewDetails/815889600",
        "LocationName": "Richmond, Virginia",
        "Salary": "$49,347 - $61,147 per year"
      }
    },
    {
      "type": "Feature",
      "geometry": { "type": "Point", "coordinates": [ -94.53655, 39.06693 ] },
      "properties": {
        "PositionTitle": "Nurse Anesthetist-CRNA",
        "PositionURI": "https://www.usajobs.gov:443/GetJob/ViewDetails/816019700",
        "LocationName": "Kansas City, Missouri",
        "Salary": "$180,642 - $240,251 per year"
      }
    },
    {
      "type": "Feature",
      "geometry": { "type": "Point", "coordinates": [ -91.8531, 36.7311 ] },
      "properties": {
        "PositionTitle": "Licensed Practical Nurse",
        "PositionURI": "https://www.usajobs.gov:443/GetJob/ViewDetails/816300100",
        "LocationName": "West Plains, Missouri",
        "Salary": "$45,021 - $81,941 per year"
      }
    },
    {
      "type": "Feature",
      "geometry": { "type": "Point", "coordinates": [ -106.4874, 31.7591 ] },
      "properties": {
        "PositionTitle": "Nurse Manager-NPAT-Program Manager-Open Continuous Announcement",
        "PositionURI": "https://www.usajobs.gov:443/GetJob/ViewDetails/816342600",
        "LocationName": "El Paso, Texas",
        "Salary": "$80,177 - $136,129 per year"
      }
    },
    {
      "type": "Feature",
      "geometry": { "type": "Point", "coordinates": [ -81.94542, 33.432972 ] },
      "properties": {
        "PositionTitle": "Registered Nurse - Geriatrics-Long Term Care",
        "PositionURI": "https://www.usajobs.gov:443/GetJob/ViewDetails/816416200",
        "LocationName": "Augusta, Georgia",
        "Salary": "$74,256 - $136,988 per year"
      }
    },
    {
      "type": "Feature",
      "geometry": { "type": "Point", "coordinates": [ -86.8115, 33.5203 ] },
      "properties": {
        "PositionTitle": "Nurse (Intermittent) Float Pool",
        "PositionURI": "https://www.usajobs.gov:443/GetJob/ViewDetails/816544100",
        "LocationName": "Birmingham, Alabama",
        "Salary": "$73,456 - $138,191 per year"
      }
    },
    {
      "type": "Feature",
      "geometry": { "type": "Point", "coordinates": [ -74.209915, 40.761 ] },
      "properties": {
        "PositionTitle": "Registered Nurse - Chief of Quality Safety Value",
        "PositionURI": "https://www.usajobs.gov:443/GetJob/ViewDetails/816553900",
        "LocationName": "East Orange, New Jersey",
        "Salary": "$135,512 - $180,227 per year"
      }
    },
    {
      "type": "Feature",
      "geometry": { "type": "Point", "coordinates": [ -98.339905, 40.92474 ] },
      "properties": {
        "PositionTitle": "Licensed Practical Nurse - Intermittent - Specialty Clinic",
        "PositionURI": "https://www.usajobs.gov:443/GetJob/ViewDetails/816779900",
        "LocationName": "Grand Island, Nebraska",
        "Salary": "$43,813 - $68,779 per year"
      }
    },
    {
      "type": "Feature",
      "geometry": { "type": "Point", "coordinates": [ -104.813, 39.7087 ] },
      "properties": {
        "PositionTitle": "Nursing Assistant",
        "PositionURI": "https://www.usajobs.gov:443/GetJob/ViewDetails/816832500",
        "LocationName": "Aurora, Colorado",
        "Salary": "$46,091 - $59,915 per year"
      }
    },
    {
      "type": "Feature",
      "geometry": { "type": "Point", "coordinates": [ -76.425934, 40.330196 ] },
      "properties": {
        "PositionTitle": "Advanced Practice Nurse - Certified Registered Nurse Anesthetist",
        "PositionURI": "https://www.usajobs.gov:443/GetJob/ViewDetails/816940500",
        "LocationName": "Lebanon, Pennsylvania",
        "Salary": "$169,418 - $267,503 per year"
      }
    },
    {
      "type": "Feature",
      "geometry": { "type": "Point", "coordinates": [ -105.99235, 38.53662 ] },
      "properties": {
        "PositionTitle": "Practical Nurse",
        "PositionURI": "https://www.usajobs.gov:443/GetJob/ViewDetails/817002500",
        "LocationName": "Salida, Colorado",
        "Salary": "$46,937 - $78,554 per year"
      }
    },
    {
      "type": "Feature",
      "geometry": { "type": "Point", "coordinates": [ -80.23742, 25.728985 ] },
      "properties": {
        "PositionTitle": "Licensed Practical Nurse - Mental Health",
        "PositionURI": "https://www.usajobs.gov:443/GetJob/ViewDetails/817061300",
        "LocationName": "Miami-Dade County, Florida",
        "Salary": "$52,601 - $90,248 per year"
      }
    },
    {
      "type": "Feature",
      "geometry": { "type": "Point", "coordinates": [ -77.433655, 37.5407 ] },
      "properties": {
        "PositionTitle": "Practical Nurse",
        "PositionURI": "https://www.usajobs.gov:443/GetJob/ViewDetails/817091100",
        "LocationName": "Richmond, Virginia",
        "Salary": "$47,881 - $74,773 per year"
      }
    },
    {
      "type": "Feature",
      "geometry": { "type": "Point", "coordinates": [ -77.32044, 42.377083 ] },
      "properties": {
        "PositionTitle": "Practical Nurse (Ltc)",
        "PositionURI": "https://www.usajobs.gov:443/GetJob/ViewDetails/817188600",
        "LocationName": "Bath, New York",
        "Salary": "$39,176 - $71,302 per year"
      }
    },
    {
      "type": "Feature",
      "geometry": { "type": "Point", "coordinates": [ -77.281, 42.8881 ] },
      "properties": {
        "PositionTitle": "Practical Nurse (Ltc)",
        "PositionURI": "https://www.usajobs.gov:443/GetJob/ViewDetails/817188600",
        "LocationName": "Canandaigua, New York",
        "Salary": "$39,176 - $71,302 per year"
      }
    },
    {
      "type": "Feature",
      "geometry": { "type": "Point", "coordinates": [ -108.56445, 39.06879 ] },
      "properties": {
        "PositionTitle": "Registered Nurse - Home Based Primary Care",
        "PositionURI": "https://www.usajobs.gov:443/GetJob/ViewDetails/817212500",
        "LocationName": "Grand Junction, Colorado",
        "Salary": "$84,959 - $146,307 per year"
      }
    },
    {
      "type": "Feature",
      "geometry": { "type": "Point", "coordinates": [ -108.50558, 45.783752 ] },
      "properties": {
        "PositionTitle": "Practical Nurse",
        "PositionURI": "https://www.usajobs.gov:443/GetJob/ViewDetails/817246500",
        "LocationName": "Billings, Montana",
        "Salary": "$47,017 - $82,412 per year"
      }
    },
    {
      "type": "Feature",
      "geometry": { "type": "Point", "coordinates": [ -86.8115, 33.5203 ] },
      "properties": {
        "PositionTitle": "NURSING ASSISTANT-OCA",
        "PositionURI": "https://www.usajobs.gov:443/GetJob/ViewDetails/817425800",
        "LocationName": "Birmingham, Alabama",
        "Salary": "$39,114 - $63,857 per year"
      }
    },
    {
      "type": "Feature",
      "geometry": { "type": "Point", "coordinates": [ -122.4196, 37.7771 ] },
      "properties": {
        "PositionTitle": "Community Living Center LVN/LPN",
        "PositionURI": "https://www.usajobs.gov:443/GetJob/ViewDetails/817435700",
        "LocationName": "San Francisco, California",
        "Salary": "$56,648 - $100,647 per year"
      }
    },
    {
      "type": "Feature",
      "geometry": { "type": "Point", "coordinates": [ -103.47638, 44.412926 ] },
      "properties": {
        "PositionTitle": "Nursing Assistant- Community Living Center",
        "PositionURI": "https://www.usajobs.gov:443/GetJob/ViewDetails/817454000",
        "LocationName": "Fort Meade, South Dakota",
        "Salary": "$37,849 - $61,791 per year"
      }
    },
    {
      "type": "Feature",
      "geometry": { "type": "Point", "coordinates": [ -73.959496, 40.652878 ] },
      "properties": {
        "PositionTitle": "Nurse IV (Deputy Chief of Quality Management)",
        "PositionURI": "https://www.usajobs.gov:443/GetJob/ViewDetails/817480500",
        "LocationName": "Kings, New York",
        "Salary": "$141,014 - $187,544 per year"
      }
    },
    {
      "type": "Feature",
      "geometry": { "type": "Point", "coordinates": [ -75.82059, 39.98186 ] },
      "properties": {
        "PositionTitle": "Licensed Practical Nurse",
        "PositionURI": "https://www.usajobs.gov:443/GetJob/ViewDetails/817492200",
        "LocationName": "Coatesville, Pennsylvania",
        "Salary": "$46,462 - $84,116 per year"
      }
    },
    {
      "type": "Feature",
      "geometry": { "type": "Point", "coordinates": [ -75.828575, 39.982647 ] },
      "properties": {
        "PositionTitle": "Nursing Assistant",
        "PositionURI": "https://www.usajobs.gov:443/GetJob/ViewDetails/817571100",
        "LocationName": "Coatesville, Pennsylvania",
        "Salary": "$38,474 - $62,813 per year"
      }
    },
    {
      "type": "Feature",
      "geometry": { "type": "Point", "coordinates": [ -93.26493, 44.979034 ] },
      "properties": {
        "PositionTitle": "Certified Nurse Anesthetist",
        "PositionURI": "https://www.usajobs.gov:443/GetJob/ViewDetails/817667200",
        "LocationName": "Minneapolis, Minnesota",
        "Salary": "$163,712 - $237,329 per year"
      }
    },
    {
      "type": "Feature",
      "geometry": { "type": "Point", "coordinates": [ -95.94007, 41.26067 ] },
      "properties": {
        "PositionTitle": "Nursing Assistant Mental Health",
        "PositionURI": "https://www.usajobs.gov:443/GetJob/ViewDetails/817949300",
        "LocationName": "Omaha, Nebraska",
        "Salary": "$37,425 - $61,100 per year"
      }
    },
    {
      "type": "Feature",
      "geometry": { "type": "Point", "coordinates": [ -108.56445, 39.06879 ] },
      "properties": {
        "PositionTitle": "Nurse Practitioner - Workplace Violence Prevention Program Manager",
        "PositionURI": "https://www.usajobs.gov:443/GetJob/ViewDetails/818286400",
        "LocationName": "Grand Junction, Colorado",
        "Salary": "$120,168 - $200,326 per year"
      }
    },
    {
      "type": "Feature",
      "geometry": { "type": "Point", "coordinates": [ -77.433655, 37.5407 ] },
      "properties": {
        "PositionTitle": "Registered Nurse - Transition to Practice",
        "PositionURI": "https://www.usajobs.gov:443/GetJob/ViewDetails/818516600",
        "LocationName": "Richmond, Virginia",
        "Salary": "$77,722 - $154,780 per year"
      }
    },
    {
      "type": "Feature",
      "geometry": { "type": "Point", "coordinates": [ -104.813, 39.7087 ] },
      "properties": {
        "PositionTitle": "Licensed Practical Nurse",
        "PositionURI": "https://www.usajobs.gov:443/GetJob/ViewDetails/818544400",
        "LocationName": "Aurora, Colorado",
        "Salary": "$46,937 - $85,427 per year"
      }
    },
    {
      "type": "Feature",
      "geometry": { "type": "Point", "coordinates": [ -69.7031, 44.2741 ] },
      "properties": {
        "PositionTitle": "Nursing Assistant-Nursing Home",
        "PositionURI": "https://www.usajobs.gov:443/GetJob/ViewDetails/818563100",
        "LocationName": "Togus, Maine",
        "Salary": "$43,365 - $70,797 per year"
      }
    },
    {
      "type": "Feature",
      "geometry": { "type": "Point", "coordinates": [ -112.102, 46.6214 ] },
      "properties": {
        "PositionTitle": "Licensed Practical Nurse-Patient Aligned Care Teams",
        "PositionURI": "https://www.usajobs.gov:443/GetJob/ViewDetails/818637000",
        "LocationName": "Fort Harrison, Montana",
        "Salary": "$47,017 - $82,481 per year"
      }
    },
    {
      "type": "Feature",
      "geometry": { "type": "Point", "coordinates": [ -95.6775, 39.0567 ] },
      "properties": {
        "PositionTitle": "CERTIFIED REGISTERED NURSE ANESTHETIST-CRNA-FULL TIME",
        "PositionURI": "https://www.usajobs.gov:443/GetJob/ViewDetails/819027800",
        "LocationName": "Topeka, Kansas",
        "Salary": "$162,068 - $234,943 per year"
      }
    },
    {
      "type": "Feature",
      "geometry": { "type": "Point", "coordinates": [ -73.75527, 42.651455 ] },
      "properties": {
        "PositionTitle": "Registered Nurse - Dialysis",
        "PositionURI": "https://www.usajobs.gov:443/GetJob/ViewDetails/819236900",
        "LocationName": "Albany, New York",
        "Salary": "$67,692 - $136,660 per year"
      }
    },
    {
      "type": "Feature",
      "geometry": { "type": "Point", "coordinates": [ -72.31854, 43.651794 ] },
      "properties": {
        "PositionTitle": "Nursing Assistant",
        "PositionURI": "https://www.usajobs.gov:443/GetJob/ViewDetails/819263900",
        "LocationName": "White River Junction, Vermont",
        "Salary": "$37,172 - $60,686 per year"
      }
    },
    {
      "type": "Feature",
      "geometry": { "type": "Point", "coordinates": [ -73.75527, 42.651455 ] },
      "properties": {
        "PositionTitle": "Nursing Assistant - 7B Med/Surg",
        "PositionURI": "https://www.usajobs.gov:443/GetJob/ViewDetails/819340800",
        "LocationName": "Albany, New York",
        "Salary": "$32,437 - $52,957 per year"
      }
    },
    {
      "type": "Feature",
      "geometry": { "type": "Point", "coordinates": [ -79.76906, 34.19363 ] },
      "properties": {
        "PositionTitle": "Licensed Practical Nurse",
        "PositionURI": "https://www.usajobs.gov:443/GetJob/ViewDetails/819363800",
        "LocationName": "Florence, South Carolina",
        "Salary": "$39,993 - $72,790 per year"
      }
    },
    {
      "type": "Feature",
      "geometry": { "type": "Point", "coordinates": [ -80.34236, 33.92434 ] },
      "properties": {
        "PositionTitle": "Licensed Practical Nurse",
        "PositionURI": "https://www.usajobs.gov:443/GetJob/ViewDetails/819363800",
        "LocationName": "Sumter, South Carolina",
        "Salary": "$39,993 - $72,790 per year"
      }
    },
    {
      "type": "Feature",
      "geometry": { "type": "Point", "coordinates": [ -84.29659, 33.774017 ] },
      "properties": {
        "PositionTitle": "Nurse (RN Staff Inpatient)",
        "PositionURI": "https://www.usajobs.gov:443/GetJob/ViewDetails/819368100",
        "LocationName": "Decatur, Georgia",
        "Salary": "$88,703 - $155,888 per year"
      }
    },
    {
      "type": "Feature",
      "geometry": { "type": "Point", "coordinates": [ -77.281, 42.8881 ] },
      "properties": {
        "PositionTitle": "Nursing Assistant - Long Term Care",
        "PositionURI": "https://www.usajobs.gov:443/GetJob/ViewDetails/819403500",
        "LocationName": "Canandaigua, New York",
        "Salary": "$36,565 - $55,339 per year"
      }
    },
    {
      "type": "Feature",
      "geometry": { "type": "Point", "coordinates": [ -87.74681, 43.914074 ] },
      "properties": {
        "PositionTitle": "Licensed Practical Nurse",
        "PositionURI": "https://www.usajobs.gov:443/GetJob/ViewDetails/819498300",
        "LocationName": "Cleveland, Wisconsin",
        "Salary": "$41,458 - $67,649 per year"
      }
    },
    {
      "type": "Feature",
      "geometry": { "type": "Point", "coordinates": [ -68.7708, 44.8017 ] },
      "properties": {
        "PositionTitle": "Nursing Assistant",
        "PositionURI": "https://www.usajobs.gov:443/GetJob/ViewDetails/819511900",
        "LocationName": "Bangor, Maine",
        "Salary": "$31,512 - $70,797 per year"
      }
    },
    {
      "type": "Feature",
      "geometry": { "type": "Point", "coordinates": [ -67.27538, 45.18855 ] },
      "properties": {
        "PositionTitle": "Nursing Assistant",
        "PositionURI": "https://www.usajobs.gov:443/GetJob/ViewDetails/819511900",
        "LocationName": "Calais, Maine",
        "Salary": "$31,512 - $70,797 per year"
      }
    },
    {
      "type": "Feature",
      "geometry": { "type": "Point", "coordinates": [ -70.2184, 44.0986 ] },
      "properties": {
        "PositionTitle": "Nursing Assistant",
        "PositionURI": "https://www.usajobs.gov:443/GetJob/ViewDetails/819511900",
        "LocationName": "Lewiston, Maine",
        "Salary": "$31,512 - $70,797 per year"
      }
    },
    {
      "type": "Feature",
      "geometry": { "type": "Point", "coordinates": [ -68.503815, 45.363895 ] },
      "properties": {
        "PositionTitle": "Nursing Assistant",
        "PositionURI": "https://www.usajobs.gov:443/GetJob/ViewDetails/819511900",
        "LocationName": "Lincoln, Maine",
        "Salary": "$31,512 - $70,797 per year"
      }
    },
    {
      "type": "Feature",
      "geometry": { "type": "Point", "coordinates": [ -70.2567, 43.6591 ] },
      "properties": {
        "PositionTitle": "Nursing Assistant",
        "PositionURI": "https://www.usajobs.gov:443/GetJob/ViewDetails/819511900",
        "LocationName": "Portland, Maine",
        "Salary": "$31,512 - $70,797 per year"
      }
    },
    {
      "type": "Feature",
      "geometry": { "type": "Point", "coordinates": [ -68.01538, 46.6816 ] },
      "properties": {
        "PositionTitle": "Nursing Assistant",
        "PositionURI": "https://www.usajobs.gov:443/GetJob/ViewDetails/819511900",
        "LocationName": "Presque Isle, Maine",
        "Salary": "$31,512 - $70,797 per year"
      }
    },
    {
      "type": "Feature",
      "geometry": { "type": "Point", "coordinates": [ -70.55174, 44.555115 ] },
      "properties": {
        "PositionTitle": "Nursing Assistant",
        "PositionURI": "https://www.usajobs.gov:443/GetJob/ViewDetails/819511900",
        "LocationName": "Rumford, Maine",
        "Salary": "$31,512 - $70,797 per year"
      }
    },
    {
      "type": "Feature",
      "geometry": { "type": "Point", "coordinates": [ -69.7031, 44.2741 ] },
      "properties": {
        "PositionTitle": "Nursing Assistant",
        "PositionURI": "https://www.usajobs.gov:443/GetJob/ViewDetails/819511900",
        "LocationName": "Togus, Maine",
        "Salary": "$31,512 - $70,797 per year"
      }
    },
    {
      "type": "Feature",
      "geometry": { "type": "Point", "coordinates": [ -71.1103, 42.32129 ] },
      "properties": {
        "PositionTitle": "Practical Nurse",
        "PositionURI": "https://www.usajobs.gov:443/GetJob/ViewDetails/819568200",
        "LocationName": "Jamaica Plain, Massachusetts",
        "Salary": "$60,618 - $94,608 per year"
      }
    },
    {
      "type": "Feature",
      "geometry": { "type": "Point", "coordinates": [ -91.5865, 41.677 ] },
      "properties": {
        "PositionTitle": "Advanced Practice Nurse (Primary Care Nurse Practitioner)",
        "PositionURI": "https://www.usajobs.gov:443/GetJob/ViewDetails/819746300",
        "LocationName": "Coralville, Iowa",
        "Salary": "$124,369 - $165,410 per year"
      }
    },
    {
      "type": "Feature",
      "geometry": { "type": "Point", "coordinates": [ -119.702385, 45.83987 ] },
      "properties": {
        "PositionTitle": "Licensed Practical Nurse (Telehealth Clinical Technician)",
        "PositionURI": "https://www.usajobs.gov:443/GetJob/ViewDetails/819759900",
        "LocationName": "Boardman, Oregon",
        "Salary": "$47,160 - $79,904 per year"
      }
    },
    {
      "type": "Feature",
      "geometry": { "type": "Point", "coordinates": [ -112.46873, 34.541424 ] },
      "properties": {
        "PositionTitle": "Licensed Practical Nurse - Domiciliary",
        "PositionURI": "https://www.usajobs.gov:443/GetJob/ViewDetails/819792300",
        "LocationName": "Prescott, Arizona",
        "Salary": "$50,443 - $87,391 per year"
      }
    },
    {
      "type": "Feature",
      "geometry": { "type": "Point", "coordinates": [ -96.7954, 32.778156 ] },
      "properties": {
        "PositionTitle": "Certified Nurse Anesthetist-Recruitment/Relocation Incentive-EDRP Authorized",
        "PositionURI": "https://www.usajobs.gov:443/GetJob/ViewDetails/819949700",
        "LocationName": "Dallas, Texas",
        "Salary": "$179,222 - $266,961 per year"
      }
    },
    {
      "type": "Feature",
      "geometry": { "type": "Point", "coordinates": [ -96.7954, 32.778156 ] },
      "properties": {
        "PositionTitle": "Certified Nurse Anesthetist-Recruitment Incentive-EDRP Authorized",
        "PositionURI": "https://www.usajobs.gov:443/GetJob/ViewDetails/819950100",
        "LocationName": "Dallas, Texas",
        "Salary": "$179,222 - $266,961 per year"
      }
    },
    {
      "type": "Feature",
      "geometry": { "type": "Point", "coordinates": [ -71.01724, 42.08317 ] },
      "properties": {
        "PositionTitle": "Licensed Practical Nurse",
        "PositionURI": "https://www.usajobs.gov:443/GetJob/ViewDetails/820022900",
        "LocationName": "Brockton, Massachusetts",
        "Salary": "$60,618 - $94,608 per year"
      }
    },
    {
      "type": "Feature",
      "geometry": { "type": "Point", "coordinates": [ -71.01724, 42.08317 ] },
      "properties": {
        "PositionTitle": "Licensed Practical Nurse",
        "PositionURI": "https://www.usajobs.gov:443/GetJob/ViewDetails/820071400",
        "LocationName": "Brockton, Massachusetts",
        "Salary": "$60,618 - $94,608 per year"
      }
    },
    {
      "type": "Feature",
      "geometry": { "type": "Point", "coordinates": [ -95.36978, 29.76045 ] },
      "properties": {
        "PositionTitle": "Advanced Practice Nurse (Certified Nurse Anesthetist)",
        "PositionURI": "https://www.usajobs.gov:443/GetJob/ViewDetails/820140400",
        "LocationName": "Houston, Texas",
        "Salary": "$177,387 - $257,151 per year"
      }
    },
    {
      "type": "Feature",
      "geometry": { "type": "Point", "coordinates": [ -122.439316, 45.531734 ] },
      "properties": {
        "PositionTitle": "Practical Nurse",
        "PositionURI": "https://www.usajobs.gov:443/GetJob/ViewDetails/820190600",
        "LocationName": "Fairview, Oregon",
        "Salary": "$54,910 - $85,540 per year"
      }
    },
    {
      "type": "Feature",
      "geometry": { "type": "Point", "coordinates": [ -122.99032, 45.522675 ] },
      "properties": {
        "PositionTitle": "Practical Nurse",
        "PositionURI": "https://www.usajobs.gov:443/GetJob/ViewDetails/820190600",
        "LocationName": "Hillsboro, Oregon",
        "Salary": "$54,910 - $85,540 per year"
      }
    },
    {
      "type": "Feature",
      "geometry": { "type": "Point", "coordinates": [ -122.67563, 45.511795 ] },
      "properties": {
        "PositionTitle": "Practical Nurse",
        "PositionURI": "https://www.usajobs.gov:443/GetJob/ViewDetails/820190600",
        "LocationName": "Portland, Oregon",
        "Salary": "$54,910 - $85,540 per year"
      }
    },
    {
      "type": "Feature",
      "geometry": { "type": "Point", "coordinates": [ -121.18343, 45.601555 ] },
      "properties": {
        "PositionTitle": "Practical Nurse",
        "PositionURI": "https://www.usajobs.gov:443/GetJob/ViewDetails/820190600",
        "LocationName": "The Dalles, Oregon",
        "Salary": "$54,910 - $85,540 per year"
      }
    },
    {
      "type": "Feature",
      "geometry": { "type": "Point", "coordinates": [ -122.648, 45.3656 ] },
      "properties": {
        "PositionTitle": "Practical Nurse",
        "PositionURI": "https://www.usajobs.gov:443/GetJob/ViewDetails/820190600",
        "LocationName": "West Linn, Oregon",
        "Salary": "$54,910 - $85,540 per year"
      }
    },
    {
      "type": "Feature",
      "geometry": { "type": "Point", "coordinates": [ -73.89544, 40.871555 ] },
      "properties": {
        "PositionTitle": "Registered Nurse",
        "PositionURI": "https://www.usajobs.gov:443/GetJob/ViewDetails/820331800",
        "LocationName": "Bronx, New York",
        "Salary": "$101,186 - $168,691 per year"
      }
    },
    {
      "type": "Feature",
      "geometry": { "type": "Point", "coordinates": [ -84.50032, 38.048595 ] },
      "properties": {
        "PositionTitle": "Registered Nurse - Critical Care",
        "PositionURI": "https://www.usajobs.gov:443/GetJob/ViewDetails/820400400",
        "LocationName": "Lexington, Kentucky",
        "Salary": "$67,912 - $132,159 per year"
      }
    },
    {
      "type": "Feature",
      "geometry": { "type": "Point", "coordinates": [ -104.82173, 38.83311 ] },
      "properties": {
        "PositionTitle": "Nurse - Outpatient PACT",
        "PositionURI": "https://www.usajobs.gov:443/GetJob/ViewDetails/820479900",
        "LocationName": "Colorado Springs, Colorado",
        "Salary": "$78,539 - $139,873 per year"
      }
    },
    {
      "type": "Feature",
      "geometry": { "type": "Point", "coordinates": [ -124.16, 40.8033 ] },
      "properties": {
        "PositionTitle": "Licensed Vocational Nurse (LVN) - Eureka Community Based Outpatient Clinic",
        "PositionURI": "https://www.usajobs.gov:443/GetJob/ViewDetails/820487400",
        "LocationName": "Eureka, California",
        "Salary": "$49,707 - $87,523 per year"
      }
    },
    {
      "type": "Feature",
      "geometry": { "type": "Point", "coordinates": [ -71.46309, 42.991177 ] },
      "properties": {
        "PositionTitle": "Assistant Nurse Manager Urgent Care",
        "PositionURI": "https://www.usajobs.gov:443/GetJob/ViewDetails/820539500",
        "LocationName": "Manchester, New Hampshire",
        "Salary": "$79,531 - $136,041 per year"
      }
    },
    {
      "type": "Feature",
      "geometry": { "type": "Point", "coordinates": [ -108.56445, 39.06879 ] },
      "properties": {
        "PositionTitle": "RN Program Manager - Palliative & Hospice Care",
        "PositionURI": "https://www.usajobs.gov:443/GetJob/ViewDetails/820546700",
        "LocationName": "Grand Junction, Colorado",
        "Salary": "$84,959 - $146,307 per year"
      }
    },
    {
      "type": "Feature",
      "geometry": { "type": "Point", "coordinates": [ -96.7954, 32.778156 ] },
      "properties": {
        "PositionTitle": "RN - Operating Room Nurse Manager",
        "PositionURI": "https://www.usajobs.gov:443/GetJob/ViewDetails/820552200",
        "LocationName": "Dallas, Texas",
        "Salary": "$73,685 - $177,798 per year"
      }
    },
    {
      "type": "Feature",
      "geometry": { "type": "Point", "coordinates": [ -79.9316, 32.781155 ] },
      "properties": {
        "PositionTitle": "Nursing Assistant - ICU",
        "PositionURI": "https://www.usajobs.gov:443/GetJob/ViewDetails/820572100",
        "LocationName": "Charleston, South Carolina",
        "Salary": "$32,640 - $53,287 per year"
      }
    },
    {
      "type": "Feature",
      "geometry": { "type": "Point", "coordinates": [ -88.01016, 44.512794 ] },
      "properties": {
        "PositionTitle": "Advanced Practice Nurse - (APN) - Cardiology",
        "PositionURI": "https://www.usajobs.gov:443/GetJob/ViewDetails/820733800",
        "LocationName": "Green Bay, Wisconsin",
        "Salary": "$96,265 - $160,489 per year"
      }
    },
    {
      "type": "Feature",
      "geometry": { "type": "Point", "coordinates": [ -71.58826, 43.44223 ] },
      "properties": {
        "PositionTitle": "RN-Case Manager Office of Community Care (Tilton)",
        "PositionURI": "https://www.usajobs.gov:443/GetJob/ViewDetails/820796300",
        "LocationName": "Tilton, New Hampshire",
        "Salary": "$73,341 - $130,446 per year"
      }
    },
    {
      "type": "Feature",
      "geometry": { "type": "Point", "coordinates": [ -77.433655, 37.5407 ] },
      "properties": {
        "PositionTitle": "Registered Nurse - SCI/D (Unit 1U)",
        "PositionURI": "https://www.usajobs.gov:443/GetJob/ViewDetails/820889000",
        "LocationName": "Richmond, Virginia",
        "Salary": "$86,619 - $160,386 per year"
      }
    },
    {
      "type": "Feature",
      "geometry": { "type": "Point", "coordinates": [ -118.34237, 46.07038 ] },
      "properties": {
        "PositionTitle": "Registered Nurse - Quality Management Consultant (SAIL/EPRP/Process Improvement)",
        "PositionURI": "https://www.usajobs.gov:443/GetJob/ViewDetails/820905400",
        "LocationName": "Walla Walla, Washington",
        "Salary": "$78,772 - $141,706 per year"
      }
    },
    {
      "type": "Feature",
      "geometry": { "type": "Point", "coordinates": [ -122.32945, 47.60358 ] },
      "properties": {
        "PositionTitle": "Nurse Practitioner - Oncology",
        "PositionURI": "https://www.usajobs.gov:443/GetJob/ViewDetails/820905500",
        "LocationName": "Seattle, Washington",
        "Salary": "$121,081 - $175,592 per year"
      }
    },
    {
      "type": "Feature",
      "geometry": { "type": "Point", "coordinates": [ -89.0182, 42.6879 ] },
      "properties": {
        "PositionTitle": "Licensed Practical Nurse (LPN) Janesville",
        "PositionURI": "https://www.usajobs.gov:443/GetJob/ViewDetails/821016400",
        "LocationName": "Janesville, Wisconsin",
        "Salary": "$43,187 - $67,703 per year"
      }
    },
    {
      "type": "Feature",
      "geometry": { "type": "Point", "coordinates": [ -147.72218, 64.845505 ] },
      "properties": {
        "PositionTitle": "Advanced Practice Nurse  - Psychiatry",
        "PositionURI": "https://www.usajobs.gov:443/GetJob/ViewDetails/821075800",
        "LocationName": "Fairbanks, Alaska",
        "Salary": "$127,814 - $213,082 per year"
      }
    },
    {
      "type": "Feature",
      "geometry": { "type": "Point", "coordinates": [ -84.39111, 33.748314 ] },
      "properties": {
        "PositionTitle": "Advanced Practice Nurse (APN)/Certified Nurse Practitioner (NP)",
        "PositionURI": "https://www.usajobs.gov:443/GetJob/ViewDetails/821087200",
        "LocationName": "Atlanta, Georgia",
        "Salary": "$151,785 - $222,053 per year"
      }
    },
    {
      "type": "Feature",
      "geometry": { "type": "Point", "coordinates": [ -91.526535, 41.657825 ] },
      "properties": {
        "PositionTitle": "Nursing Assistant - Medical Surgical",
        "PositionURI": "https://www.usajobs.gov:443/GetJob/ViewDetails/821089100",
        "LocationName": "Iowa City, Iowa",
        "Salary": "$36,047 - $58,849 per year"
      }
    },
    {
      "type": "Feature",
      "geometry": { "type": "Point", "coordinates": [ -84.34167, 33.098026 ] },
      "properties": {
        "PositionTitle": "Registered Nurse",
        "PositionURI": "https://www.usajobs.gov:443/GetJob/ViewDetails/821099300",
        "LocationName": "Zebulon, Georgia",
        "Salary": "$88,703 - $155,888 per year"
      }
    },
    {
      "type": "Feature",
      "geometry": { "type": "Point", "coordinates": [ -117.162, 32.7157 ] },
      "properties": {
        "PositionTitle": "LIcensed Vocational Nurse - Patient Aligned Care Team La Jolla",
        "PositionURI": "https://www.usajobs.gov:443/GetJob/ViewDetails/821115200",
        "LocationName": "San Diego, California",
        "Salary": "$69,865 - $90,828 per year"
      }
    },
    {
      "type": "Feature",
      "geometry": { "type": "Point", "coordinates": [ -105.22495, 39.756657 ] },
      "properties": {
        "PositionTitle": "Licensed Practical Nurse-Patient Aligned Care Teams",
        "PositionURI": "https://www.usajobs.gov:443/GetJob/ViewDetails/821120900",
        "LocationName": "Golden, Colorado",
        "Salary": "$46,937 - $85,427 per year"
      }
    },
    {
      "type": "Feature",
      "geometry": { "type": "Point", "coordinates": [ -103.47638, 44.412926 ] },
      "properties": {
        "PositionTitle": "Licensed Practical Nurse- VA Community Living Center",
        "PositionURI": "https://www.usajobs.gov:443/GetJob/ViewDetails/821124900",
        "LocationName": "Fort Meade, South Dakota",
        "Salary": "$47,206 - $85,918 per year"
      }
    },
    {
      "type": "Feature",
      "geometry": { "type": "Point", "coordinates": [ -114.57262, 35.167564 ] },
      "properties": {
        "PositionTitle": "Licensed Practical Nurse",
        "PositionURI": "https://www.usajobs.gov:443/GetJob/ViewDetails/821139500",
        "LocationName": "Laughlin, Nevada",
        "Salary": "$49,594 - $100,303 per year"
      }
    },
    {
      "type": "Feature",
      "geometry": { "type": "Point", "coordinates": [ -83.5678, 35.8685 ] },
      "properties": {
        "PositionTitle": "Registered Nurse (Sevierville)",
        "PositionURI": "https://www.usajobs.gov:443/GetJob/ViewDetails/821143000",
        "LocationName": "Sevierville, Tennessee",
        "Salary": "$56,563 - $110,490 per year"
      }
    },
    {
      "type": "Feature",
      "geometry": { "type": "Point", "coordinates": [ -77.433655, 37.5407 ] },
      "properties": {
        "PositionTitle": "Registered Nurse - 4B/C Med/Surg (OCA)",
        "PositionURI": "https://www.usajobs.gov:443/GetJob/ViewDetails/821144900",
        "LocationName": "Richmond, Virginia",
        "Salary": "$77,722 - $154,780 per year"
      }
    },
    {
      "type": "Feature",
      "geometry": { "type": "Point", "coordinates": [ -86.778366, 36.16778 ] },
      "properties": {
        "PositionTitle": "Registered Nurse 4N Psychiatric-Medical Unit",
        "PositionURI": "https://www.usajobs.gov:443/GetJob/ViewDetails/821173600",
        "LocationName": "Nashville, Tennessee",
        "Salary": "$74,046 - $127,654 per year"
      }
    },
    {
      "type": "Feature",
      "geometry": { "type": "Point", "coordinates": [ -105.08274, 39.71095 ] },
      "properties": {
        "PositionTitle": "RRTP MH Registered Nurse- Valor Point Domiciliary",
        "PositionURI": "https://www.usajobs.gov:443/GetJob/ViewDetails/821196800",
        "LocationName": "Lakewood, Colorado",
        "Salary": "$86,966 - $144,980 per year"
      }
    },
    {
      "type": "Feature",
      "geometry": { "type": "Point", "coordinates": [ -73.75527, 42.651455 ] },
      "properties": {
        "PositionTitle": "Nursing Assistant- Mental Health",
        "PositionURI": "https://www.usajobs.gov:443/GetJob/ViewDetails/821218600",
        "LocationName": "Albany, New York",
        "Salary": "$32,437 - $52,957 per year"
      }
    },
    {
      "type": "Feature",
      "geometry": { "type": "Point", "coordinates": [ -122.4196, 37.7771 ] },
      "properties": {
        "PositionTitle": "Chief Nurse (Ambulatory Care/Northern CBOC)",
        "PositionURI": "https://www.usajobs.gov:443/GetJob/ViewDetails/821220400",
        "LocationName": "San Francisco, California",
        "Salary": "$197,616 - $221,900 per year"
      }
    },
    {
      "type": "Feature",
      "geometry": { "type": "Point", "coordinates": [ -82.7413, 28.0789 ] },
      "properties": {
        "PositionTitle": "PACT RN - Outpatient Staff",
        "PositionURI": "https://www.usajobs.gov:443/GetJob/ViewDetails/821268400",
        "LocationName": "Palm Harbor, Florida",
        "Salary": "$71,823 - $139,901 per year"
      }
    },
    {
      "type": "Feature",
      "geometry": { "type": "Point", "coordinates": [ -113.01084, 48.55591 ] },
      "properties": {
        "PositionTitle": "Nurse Practitioner (Primary Care)- Population Health",
        "PositionURI": "https://www.usajobs.gov:443/GetJob/ViewDetails/821279100",
        "LocationName": "Browning, Montana",
        "Salary": "$124,656 - $190,650 per year"
      }
    },
    {
      "type": "Feature",
      "geometry": { "type": "Point", "coordinates": [ -82.34528, 36.320087 ] },
      "properties": {
        "PositionTitle": "Nursing Assistant- Mental Health",
        "PositionURI": "https://www.usajobs.gov:443/GetJob/ViewDetails/821279500",
        "LocationName": "Johnson City, Tennessee",
        "Salary": "$42,581 - $55,353 per year"
      }
    },
    {
      "type": "Feature",
      "geometry": { "type": "Point", "coordinates": [ -123.20783, 39.150925 ] },
      "properties": {
        "PositionTitle": "Licensed Vocational Nurse (LVN) - Ukiah Community Based Outpatient Clinic",
        "PositionURI": "https://www.usajobs.gov:443/GetJob/ViewDetails/821289900",
        "LocationName": "Ukiah, California",
        "Salary": "$67,324 - $87,523 per year"
      }
    },
    {
      "type": "Feature",
      "geometry": { "type": "Point", "coordinates": [ -71.274, 42.4917 ] },
      "properties": {
        "PositionTitle": "Practical Nurse",
        "PositionURI": "https://www.usajobs.gov:443/GetJob/ViewDetails/821311400",
        "LocationName": "Bedford, Massachusetts",
        "Salary": "$59,075 - $91,476 per year"
      }
    },
    {
      "type": "Feature",
      "geometry": { "type": "Point", "coordinates": [ -82.77736, 27.8128 ] },
      "properties": {
        "PositionTitle": "Medical Specialty Care - Outpatient Staff Registered Nurse",
        "PositionURI": "https://www.usajobs.gov:443/GetJob/ViewDetails/821320100",
        "LocationName": "Bay Pines, Florida",
        "Salary": "$71,823 - $139,901 per year"
      }
    },
    {
      "type": "Feature",
      "geometry": { "type": "Point", "coordinates": [ -104.813, 39.7087 ] },
      "properties": {
        "PositionTitle": "Practical Nurse- Patient Aligned Care Teams",
        "PositionURI": "https://www.usajobs.gov:443/GetJob/ViewDetails/821343300",
        "LocationName": "Aurora, Colorado",
        "Salary": "$46,937 - $85,427 per year"
      }
    },
    {
      "type": "Feature",
      "geometry": { "type": "Point", "coordinates": [ -90.5048, 43.9726 ] },
      "properties": {
        "PositionTitle": "Registered Nurse - Community Living Center",
        "PositionURI": "https://www.usajobs.gov:443/GetJob/ViewDetails/821382400",
        "LocationName": "Tomah, Wisconsin",
        "Salary": "$79,320 - $150,613 per year"
      }
    },
    {
      "type": "Feature",
      "geometry": { "type": "Point", "coordinates": [ -96.7313, 43.5453 ] },
      "properties": {
        "PositionTitle": "Registered Nurse - Resident Assessment Coordinator/Safe Patient Handling",
        "PositionURI": "https://www.usajobs.gov:443/GetJob/ViewDetails/821382500",
        "LocationName": "Sioux Falls, South Dakota",
        "Salary": "$61,768 - $111,572 per year"
      }
    },
    {
      "type": "Feature",
      "geometry": { "type": "Point", "coordinates": [ -84.39111, 33.748314 ] },
      "properties": {
        "PositionTitle": "Registered Nurse - Perioperative",
        "PositionURI": "https://www.usajobs.gov:443/GetJob/ViewDetails/821413700",
        "LocationName": "Atlanta, Georgia",
        "Salary": "$88,703 - $155,888 per year"
      }
    },
    {
      "type": "Feature",
      "geometry": { "type": "Point", "coordinates": [ -86.39434, 35.8444 ] },
      "properties": {
        "PositionTitle": "Registered Nurse - Post Anesthesia Care Unit (PACU)",
        "PositionURI": "https://www.usajobs.gov:443/GetJob/ViewDetails/821422800",
        "LocationName": "Murfreesboro, Tennessee",
        "Salary": "$80,611 - $137,892 per year"
      }
    },
    {
      "type": "Feature",
      "geometry": { "type": "Point", "coordinates": [ -122.32945, 47.60358 ] },
      "properties": {
        "PositionTitle": "Registered Nurse - Acute Care (Inpatient)",
        "PositionURI": "https://www.usajobs.gov:443/GetJob/ViewDetails/821445000",
        "LocationName": "Seattle, Washington",
        "Salary": "$84,976 - $156,928 per year"
      }
    },
    {
      "type": "Feature",
      "geometry": { "type": "Point", "coordinates": [ -122.32945, 47.60358 ] },
      "properties": {
        "PositionTitle": "Registered Nurse - Cancer Care Clinic",
        "PositionURI": "https://www.usajobs.gov:443/GetJob/ViewDetails/821461900",
        "LocationName": "Seattle, Washington",
        "Salary": "$84,976 - $156,928 per year"
      }
    },
    {
      "type": "Feature",
      "geometry": { "type": "Point", "coordinates": [ -76.609604, 39.290554 ] },
      "properties": {
        "PositionTitle": "Registered Nurse (Emergency Department)",
        "PositionURI": "https://www.usajobs.gov:443/GetJob/ViewDetails/821471800",
        "LocationName": "Baltimore, Maryland",
        "Salary": "$76,295 - $149,436 per year"
      }
    },
    {
      "type": "Feature",
      "geometry": { "type": "Point", "coordinates": [ -76.609604, 39.290554 ] },
      "properties": {
        "PositionTitle": "Nursing Assistant (Emergency Department)",
        "PositionURI": "https://www.usajobs.gov:443/GetJob/ViewDetails/821492100",
        "LocationName": "Baltimore, Maryland",
        "Salary": "$42,483 - $69,357 per year"
      }
    },
    {
      "type": "Feature",
      "geometry": { "type": "Point", "coordinates": [ -76.609604, 39.290554 ] },
      "properties": {
        "PositionTitle": "Registered Nurse (Medical Surgical Telemetry Nurse, 3MED)",
        "PositionURI": "https://www.usajobs.gov:443/GetJob/ViewDetails/821492300",
        "LocationName": "Baltimore, Maryland",
        "Salary": "$76,295 - $149,436 per year"
      }
    },
    {
      "type": "Feature",
      "geometry": { "type": "Point", "coordinates": [ -90.5048, 43.9726 ] },
      "properties": {
        "PositionTitle": "Nursing Assistant",
        "PositionURI": "https://www.usajobs.gov:443/GetJob/ViewDetails/821498800",
        "LocationName": "Tomah, Wisconsin",
        "Salary": "$38,871 - $60,391 per year"
      }
    },
    {
      "type": "Feature",
      "geometry": { "type": "Point", "coordinates": [ -122.32945, 47.60358 ] },
      "properties": {
        "PositionTitle": "Registered Nurse - Patient Access Nurse Coordinator",
        "PositionURI": "https://www.usajobs.gov:443/GetJob/ViewDetails/821506800",
        "LocationName": "Seattle, Washington",
        "Salary": "$84,976 - $156,928 per year"
      }
    },
    {
      "type": "Feature",
      "geometry": { "type": "Point", "coordinates": [ -76.609604, 39.290554 ] },
      "properties": {
        "PositionTitle": "Nursing Assistant (Inpatient 3MED)",
        "PositionURI": "https://www.usajobs.gov:443/GetJob/ViewDetails/821521300",
        "LocationName": "Baltimore, Maryland",
        "Salary": "$42,483 - $69,357 per year"
      }
    },
    {
      "type": "Feature",
      "geometry": { "type": "Point", "coordinates": [ -76.609604, 39.290554 ] },
      "properties": {
        "PositionTitle": "Nursing Assistant (Surgical Intensive Care Unit)",
        "PositionURI": "https://www.usajobs.gov:443/GetJob/ViewDetails/821539600",
        "LocationName": "Baltimore, Maryland",
        "Salary": "$42,483 - $69,357 per year"
      }
    },
    {
      "type": "Feature",
      "geometry": { "type": "Point", "coordinates": [ -76.609604, 39.290554 ] },
      "properties": {
        "PositionTitle": "Registered Nurse (SICU)",
        "PositionURI": "https://www.usajobs.gov:443/GetJob/ViewDetails/821539900",
        "LocationName": "Baltimore, Maryland",
        "Salary": "$76,295 - $149,436 per year"
      }
    },
    {
      "type": "Feature",
      "geometry": { "type": "Point", "coordinates": [ -147.72218, 64.845505 ] },
      "properties": {
        "PositionTitle": "Licensed Practical Nurse",
        "PositionURI": "https://www.usajobs.gov:443/GetJob/ViewDetails/821552500",
        "LocationName": "Fairbanks, Alaska",
        "Salary": "$38,442 - $87,631 per year"
      }
    },
    {
      "type": "Feature",
      "geometry": { "type": "Point", "coordinates": [ -77.3802, 35.6072 ] },
      "properties": {
        "PositionTitle": "Registered Nurse - Close to Me Infusion Greenville Outpatient Clinic (Temporary)",
        "PositionURI": "https://www.usajobs.gov:443/GetJob/ViewDetails/821562400",
        "LocationName": "Greenville, North Carolina",
        "Salary": "$77,148 - $103,660 per year"
      }
    },
    {
      "type": "Feature",
      "geometry": { "type": "Point", "coordinates": [ -71.274, 42.4917 ] },
      "properties": {
        "PositionTitle": "Practical Nurse",
        "PositionURI": "https://www.usajobs.gov:443/GetJob/ViewDetails/821563700",
        "LocationName": "Bedford, Massachusetts",
        "Salary": "$59,075 - $91,476 per year"
      }
    },
    {
      "type": "Feature",
      "geometry": { "type": "Point", "coordinates": [ -91.526535, 41.657825 ] },
      "properties": {
        "PositionTitle": "Advanced Practice Nurse (APN) Certified Nurse Practitioner (NP) Spinal Cord Injury and Disease",
        "PositionURI": "https://www.usajobs.gov:443/GetJob/ViewDetails/821571800",
        "LocationName": "Iowa City, Iowa",
        "Salary": "$114,100 - $165,410 per year"
      }
    },
    {
      "type": "Feature",
      "geometry": { "type": "Point", "coordinates": [ -122.32945, 47.60358 ] },
      "properties": {
        "PositionTitle": "Registered Nurse - GI Endoscopy",
        "PositionURI": "https://www.usajobs.gov:443/GetJob/ViewDetails/821589500",
        "LocationName": "Seattle, Washington",
        "Salary": "$84,976 - $156,928 per year"
      }
    },
    {
      "type": "Feature",
      "geometry": { "type": "Point", "coordinates": [ -117.162, 32.7157 ] },
      "properties": {
        "PositionTitle": "Nurse Manager/Section Chief Acute Mental Health",
        "PositionURI": "https://www.usajobs.gov:443/GetJob/ViewDetails/821595500",
        "LocationName": "San Diego, California",
        "Salary": "$148,541 - $219,837 per year"
      }
    },
    {
      "type": "Feature",
      "geometry": { "type": "Point", "coordinates": [ -83.74848, 42.281876 ] },
      "properties": {
        "PositionTitle": "Licensed Practical Nurse PACT Ann Arbor",
        "PositionURI": "https://www.usajobs.gov:443/GetJob/ViewDetails/821618300",
        "LocationName": "Ann Arbor, Michigan",
        "Salary": "$46,902 - $74,066 per year"
      }
    },
    {
      "type": "Feature",
      "geometry": { "type": "Point", "coordinates": [ -88.930046, 37.73082 ] },
      "properties": {
        "PositionTitle": "LPN- Float",
        "PositionURI": "https://www.usajobs.gov:443/GetJob/ViewDetails/821623500",
        "LocationName": "Marion, Illinois",
        "Salary": "$47,115 - $73,644 per year"
      }
    },
    {
      "type": "Feature",
      "geometry": { "type": "Point", "coordinates": [ -82.77736, 27.8128 ] },
      "properties": {
        "PositionTitle": "Registered Nurse - Deputy Chief of Quality Systems",
        "PositionURI": "https://www.usajobs.gov:443/GetJob/ViewDetails/821628200",
        "LocationName": "Bay Pines, Florida",
        "Salary": "$152,975 - $203,454 per year"
      }
    },
    {
      "type": "Feature",
      "geometry": { "type": "Point", "coordinates": [ -77.96456, 39.45637 ] },
      "properties": {
        "PositionTitle": "Licensed Practical Nurse (Long Term Care) 5A",
        "PositionURI": "https://www.usajobs.gov:443/GetJob/ViewDetails/821630200",
        "LocationName": "Martinsburg, West Virginia",
        "Salary": "$53,405 - $84,592 per year"
      }
    },
    {
      "type": "Feature",
      "geometry": { "type": "Point", "coordinates": [ -87.8409, 41.862103 ] },
      "properties": {
        "PositionTitle": "Nursing Assistant (RCF)",
        "PositionURI": "https://www.usajobs.gov:443/GetJob/ViewDetails/821639000",
        "LocationName": "Hines, Illinois",
        "Salary": "$36,611 - $59,779 per year"
      }
    },
    {
      "type": "Feature",
      "geometry": { "type": "Point", "coordinates": [ -81.09072, 32.08078 ] },
      "properties": {
        "PositionTitle": "Licensed Practical Nurse",
        "PositionURI": "https://www.usajobs.gov:443/GetJob/ViewDetails/821640200",
        "LocationName": "Savannah, Georgia",
        "Salary": "$41,542 - $65,789 per year"
      }
    },
    {
      "type": "Feature",
      "geometry": { "type": "Point", "coordinates": [ -82.77736, 27.8128 ] },
      "properties": {
        "PositionTitle": "RN - Community Living Center & Hospice",
        "PositionURI": "https://www.usajobs.gov:443/GetJob/ViewDetails/821646900",
        "LocationName": "Bay Pines, Florida",
        "Salary": "$76,903 - $135,204 per year"
      }
    },
    {
      "type": "Feature",
      "geometry": { "type": "Point", "coordinates": [ -112.46873, 34.541424 ] },
      "properties": {
        "PositionTitle": "Registered Nurse - Community Living Center",
        "PositionURI": "https://www.usajobs.gov:443/GetJob/ViewDetails/821670000",
        "LocationName": "Prescott, Arizona",
        "Salary": "$85,214 - $154,237 per year"
      }
    },
    {
      "type": "Feature",
      "geometry": { "type": "Point", "coordinates": [ -109.22273, 41.586086 ] },
      "properties": {
        "PositionTitle": "Outpatient Staff Registered Nurse",
        "PositionURI": "https://www.usajobs.gov:443/GetJob/ViewDetails/821691600",
        "LocationName": "Rock Springs, Wyoming",
        "Salary": "$78,189 - $148,143 per year"
      }
    },
    {
      "type": "Feature",
      "geometry": { "type": "Point", "coordinates": [ -90.18049, 32.29869 ] },
      "properties": {
        "PositionTitle": "Nurse - Care Coordination and Integrated Case Management Co-Champion",
        "PositionURI": "https://www.usajobs.gov:443/GetJob/ViewDetails/821703400",
        "LocationName": "Jackson, Mississippi",
        "Salary": "$58,522 - $140,102 per year"
      }
    },
    {
      "type": "Feature",
      "geometry": { "type": "Point", "coordinates": [ -82.34528, 36.320087 ] },
      "properties": {
        "PositionTitle": "Registered Nurse- Inpatient Staff- D1",
        "PositionURI": "https://www.usajobs.gov:443/GetJob/ViewDetails/821713500",
        "LocationName": "Johnson City, Tennessee",
        "Salary": "$58,772 - $111,353 per year"
      }
    },
    {
      "type": "Feature",
      "geometry": { "type": "Point", "coordinates": [ -84.39111, 33.748314 ] },
      "properties": {
        "PositionTitle": "Registered Nurse- Critical Care",
        "PositionURI": "https://www.usajobs.gov:443/GetJob/ViewDetails/821721600",
        "LocationName": "Atlanta, Georgia",
        "Salary": "$88,703 - $162,920 per year"
      }
    },
    {
      "type": "Feature",
      "geometry": { "type": "Point", "coordinates": [ -104.82155, 41.134815 ] },
      "properties": {
        "PositionTitle": "Nursing Assistant",
        "PositionURI": "https://www.usajobs.gov:443/GetJob/ViewDetails/821723100",
        "LocationName": "Cheyenne, Wyoming",
        "Salary": "$40,193 - $63,857 per year"
      }
    },
    {
      "type": "Feature",
      "geometry": { "type": "Point", "coordinates": [ -104.82173, 38.83311 ] },
      "properties": {
        "PositionTitle": "Practical Nurse PACT",
        "PositionURI": "https://www.usajobs.gov:443/GetJob/ViewDetails/821725700",
        "LocationName": "Colorado Springs, Colorado",
        "Salary": "$56,576 - $81,008 per year"
      }
    },
    {
      "type": "Feature",
      "geometry": { "type": "Point", "coordinates": [ -149.85774, 61.21756 ] },
      "properties": {
        "PositionTitle": "Registered Nurse (Intensive Community Mental Health Recovery - Rural Access Network For Growth)",
        "PositionURI": "https://www.usajobs.gov:443/GetJob/ViewDetails/821741800",
        "LocationName": "Anchorage, Alaska",
        "Salary": "$89,250 - $163,242 per year"
      }
    },
    {
      "type": "Feature",
      "geometry": { "type": "Point", "coordinates": [ -119.813, 39.5274 ] },
      "properties": {
        "PositionTitle": "Psychiatric Nurse Practitioner - HUD/VASH",
        "PositionURI": "https://www.usajobs.gov:443/GetJob/ViewDetails/821750800",
        "LocationName": "Reno, Nevada",
        "Salary": "$135,056 - $195,785 per year"
      }
    },
    {
      "type": "Feature",
      "geometry": { "type": "Point", "coordinates": [ -116.19341, 43.60698 ] },
      "properties": {
        "PositionTitle": "Nurse (Community Living Center)",
        "PositionURI": "https://www.usajobs.gov:443/GetJob/ViewDetails/821761800",
        "LocationName": "Boise, Idaho",
        "Salary": "$68,232 - $140,566 per year"
      }
    },
    {
      "type": "Feature",
      "geometry": { "type": "Point", "coordinates": [ -78.89601, 35.995274 ] },
      "properties": {
        "PositionTitle": "Registered Nurse (Coronary Intensive Care Unit)",
        "PositionURI": "https://www.usajobs.gov:443/GetJob/ViewDetails/821769000",
        "LocationName": "Durham, North Carolina",
        "Salary": "$80,628 - $151,006 per year"
      }
    },
    {
      "type": "Feature",
      "geometry": { "type": "Point", "coordinates": [ -71.0567, 42.358635 ] },
      "properties": {
        "PositionTitle": "Registered Nurse- Informatics",
        "PositionURI": "https://www.usajobs.gov:443/GetJob/ViewDetails/821775600",
        "LocationName": "Boston, Massachusetts",
        "Salary": "$88,347 - $179,736 per year"
      }
    },
    {
      "type": "Feature",
      "geometry": { "type": "Point", "coordinates": [ -78.89601, 35.995274 ] },
      "properties": {
        "PositionTitle": "Registered Nurse (Coronary Intensive Care Unit)",
        "PositionURI": "https://www.usajobs.gov:443/GetJob/ViewDetails/821776700",
        "LocationName": "Durham, North Carolina",
        "Salary": "$80,628 - $151,006 per year"
      }
    },
    {
      "type": "Feature",
      "geometry": { "type": "Point", "coordinates": [ -91.526535, 41.657825 ] },
      "properties": {
        "PositionTitle": "Registered Nurse - Critical Care",
        "PositionURI": "https://www.usajobs.gov:443/GetJob/ViewDetails/821777700",
        "LocationName": "Iowa City, Iowa",
        "Salary": "$71,746 - $119,713 per year"
      }
    },
    {
      "type": "Feature",
      "geometry": { "type": "Point", "coordinates": [ -81.37739, 28.538235 ] },
      "properties": {
        "PositionTitle": "Nurse Practitioner- Primary Care",
        "PositionURI": "https://www.usajobs.gov:443/GetJob/ViewDetails/821778600",
        "LocationName": "Orlando, Florida",
        "Salary": "$114,679 - $178,445 per year"
      }
    },
    {
      "type": "Feature",
      "geometry": { "type": "Point", "coordinates": [ -149.85774, 61.21756 ] },
      "properties": {
        "PositionTitle": "Registered Nurse - Mental Health Substance Treatment Program",
        "PositionURI": "https://www.usajobs.gov:443/GetJob/ViewDetails/821817300",
        "LocationName": "Anchorage, Alaska",
        "Salary": "$89,250 - $163,242 per year"
      }
    },
    {
      "type": "Feature",
      "geometry": { "type": "Point", "coordinates": [ -117.41228, 47.65726 ] },
      "properties": {
        "PositionTitle": "Registered Nurse (Operating Room)",
        "PositionURI": "https://www.usajobs.gov:443/GetJob/ViewDetails/821820600",
        "LocationName": "Spokane, Washington",
        "Salary": "$79,425 - $140,118 per year"
      }
    },
    {
      "type": "Feature",
      "geometry": { "type": "Point", "coordinates": [ -84.4036, 39.5099 ] },
      "properties": {
        "PositionTitle": "Nurse",
        "PositionURI": "https://www.usajobs.gov:443/GetJob/ViewDetails/821835200",
        "LocationName": "Middletown, Ohio",
        "Salary": "$74,152 - $158,538 per year"
      }
    },
    {
      "type": "Feature",
      "geometry": { "type": "Point", "coordinates": [ -96.6366, 32.9139 ] },
      "properties": {
        "PositionTitle": "Registered Nurse Wound Ostomy and Continence (WOC)",
        "PositionURI": "https://www.usajobs.gov:443/GetJob/ViewDetails/821841900",
        "LocationName": "Garland, Texas",
        "Salary": "$73,685 - $170,124 per year"
      }
    },
    {
      "type": "Feature",
      "geometry": { "type": "Point", "coordinates": [ -90.18049, 32.29869 ] },
      "properties": {
        "PositionTitle": "Specialty Care-Outpatient Staff Registered Nurse",
        "PositionURI": "https://www.usajobs.gov:443/GetJob/ViewDetails/821854700",
        "LocationName": "Jackson, Mississippi",
        "Salary": "$58,522 - $140,102 per year"
      }
    },
    {
      "type": "Feature",
      "geometry": { "type": "Point", "coordinates": [ -76.275024, 39.97544 ] },
      "properties": {
        "PositionTitle": "Registered Nurse - Outpatient Mental Health",
        "PositionURI": "https://www.usajobs.gov:443/GetJob/ViewDetails/821868200",
        "LocationName": "Willow Street, Pennsylvania",
        "Salary": "$71,612 - $125,559 per year"
      }
    },
    {
      "type": "Feature",
      "geometry": { "type": "Point", "coordinates": [ -86.39434, 35.8444 ] },
      "properties": {
        "PositionTitle": "Nursing Assistant- External (Tele-sitter Program)",
        "PositionURI": "https://www.usajobs.gov:443/GetJob/ViewDetails/821876900",
        "LocationName": "Murfreesboro, Tennessee",
        "Salary": "$40,009 - $65,319 per year"
      }
    },
    {
      "type": "Feature",
      "geometry": { "type": "Point", "coordinates": [ -82.34528, 36.320087 ] },
      "properties": {
        "PositionTitle": "Registered Nurse-C1 (Medical, Surgical, Oncology, Telemetry)",
        "PositionURI": "https://www.usajobs.gov:443/GetJob/ViewDetails/821877100",
        "LocationName": "Johnson City, Tennessee",
        "Salary": "$58,772 - $111,353 per year"
      }
    },
    {
      "type": "Feature",
      "geometry": { "type": "Point", "coordinates": [ -71.01724, 42.08317 ] },
      "properties": {
        "PositionTitle": "Registered Nurse - 72C - CLC - Hospice and Palliative Care",
        "PositionURI": "https://www.usajobs.gov:443/GetJob/ViewDetails/821895700",
        "LocationName": "Brockton, Massachusetts",
        "Salary": "$88,347 - $187,844 per year"
      }
    },
    {
      "type": "Feature",
      "geometry": { "type": "Point", "coordinates": [ -88.896385, 30.394384 ] },
      "properties": {
        "PositionTitle": "Registered Nurse - Community Care Coordinator",
        "PositionURI": "https://www.usajobs.gov:443/GetJob/ViewDetails/821898400",
        "LocationName": "Biloxi, Mississippi",
        "Salary": "$65,614 - $156,789 per year"
      }
    },
    {
      "type": "Feature",
      "geometry": { "type": "Point", "coordinates": [ -96.7954, 32.778156 ] },
      "properties": {
        "PositionTitle": "Nursing Assistant -  Interventional Radiology",
        "PositionURI": "https://www.usajobs.gov:443/GetJob/ViewDetails/821935000",
        "LocationName": "Dallas, Texas",
        "Salary": "$34,838 - $56,884 per year"
      }
    },
    {
      "type": "Feature",
      "geometry": { "type": "Point", "coordinates": [ -95.6775, 39.0567 ] },
      "properties": {
        "PositionTitle": "Registered Nurse - Outpatient Primary Care Mental Health Integration",
        "PositionURI": "https://www.usajobs.gov:443/GetJob/ViewDetails/821935500",
        "LocationName": "Topeka, Kansas",
        "Salary": "$68,157 - $127,286 per year"
      }
    },
    {
      "type": "Feature",
      "geometry": { "type": "Point", "coordinates": [ -105.22495, 39.756657 ] },
      "properties": {
        "PositionTitle": "Outpatient Mental Health Registered Nurse",
        "PositionURI": "https://www.usajobs.gov:443/GetJob/ViewDetails/821938100",
        "LocationName": "Golden, Colorado",
        "Salary": "$86,966 - $144,980 per year"
      }
    },
    {
      "type": "Feature",
      "geometry": { "type": "Point", "coordinates": [ -110.96976, 32.221554 ] },
      "properties": {
        "PositionTitle": "Licensed Practical Nurse- Ambulatory Care Service",
        "PositionURI": "https://www.usajobs.gov:443/GetJob/ViewDetails/821967700",
        "LocationName": "Tucson, Arizona",
        "Salary": "$53,293 - $86,409 per year"
      }
    },
    {
      "type": "Feature",
      "geometry": { "type": "Point", "coordinates": [ -84.39111, 33.748314 ] },
      "properties": {
        "PositionTitle": "Certified Registered Nurse Anesthetist",
        "PositionURI": "https://www.usajobs.gov:443/GetJob/ViewDetails/821973300",
        "LocationName": "Atlanta, Georgia",
        "Salary": "$196,734 - $284,600 per year"
      }
    },
    {
      "type": "Feature",
      "geometry": { "type": "Point", "coordinates": [ -81.97531, 33.47909 ] },
      "properties": {
        "PositionTitle": "RN Resource Float Pool",
        "PositionURI": "https://www.usajobs.gov:443/GetJob/ViewDetails/821978200",
        "LocationName": "Augusta, Georgia",
        "Salary": "$74,256 - $131,200 per year"
      }
    },
    {
      "type": "Feature",
      "geometry": { "type": "Point", "coordinates": [ -77.3802, 35.6072 ] },
      "properties": {
        "PositionTitle": "Assistant Registered Nurse Manager - Greenville Primary Care",
        "PositionURI": "https://www.usajobs.gov:443/GetJob/ViewDetails/821978400",
        "LocationName": "Greenville, North Carolina",
        "Salary": "$77,218 - $143,158 per year"
      }
    },
    {
      "type": "Feature",
      "geometry": { "type": "Point", "coordinates": [ -110.96976, 32.221554 ] },
      "properties": {
        "PositionTitle": "Nurse Practitioner- GAP , Community Base Clinic PACT Service",
        "PositionURI": "https://www.usajobs.gov:443/GetJob/ViewDetails/821979200",
        "LocationName": "Tucson, Arizona",
        "Salary": "$122,831 - $227,456 per year"
      }
    },
    {
      "type": "Feature",
      "geometry": { "type": "Point", "coordinates": [ -91.526535, 41.657825 ] },
      "properties": {
        "PositionTitle": "Registered Nurse - Post Anesthesia Care Unit (PACU)",
        "PositionURI": "https://www.usajobs.gov:443/GetJob/ViewDetails/821988000",
        "LocationName": "Iowa City, Iowa",
        "Salary": "$71,746 - $119,713 per year"
      }
    },
    {
      "type": "Feature",
      "geometry": { "type": "Point", "coordinates": [ -96.70774, 40.81362 ] },
      "properties": {
        "PositionTitle": "Registered Nurse - Specialty Medicine Clinic Case Manager",
        "PositionURI": "https://www.usajobs.gov:443/GetJob/ViewDetails/822002000",
        "LocationName": "Lincoln, Nebraska",
        "Salary": "$54,708 - $114,184 per year"
      }
    },
    {
      "type": "Feature",
      "geometry": { "type": "Point", "coordinates": [ -76.34512, 37.027794 ] },
      "properties": {
        "PositionTitle": "Nurse - SCI & Rehab",
        "PositionURI": "https://www.usajobs.gov:443/GetJob/ViewDetails/822010200",
        "LocationName": "Hampton, Virginia",
        "Salary": "$81,278 - $149,431 per year"
      }
    },
    {
      "type": "Feature",
      "geometry": { "type": "Point", "coordinates": [ -74.0071, 40.7146 ] },
      "properties": {
        "PositionTitle": "RN - Nurse Manager (PCTC) Medical intensive Care Unit and Cardiac Catheter Lab (CCL)",
        "PositionURI": "https://www.usajobs.gov:443/GetJob/ViewDetails/822010300",
        "LocationName": "New York, New York",
        "Salary": "$101,186 - $168,691 per year"
      }
    },
    {
      "type": "Feature",
      "geometry": { "type": "Point", "coordinates": [ -77.96456, 39.45637 ] },
      "properties": {
        "PositionTitle": "Registered Nurse - Wound Care",
        "PositionURI": "https://www.usajobs.gov:443/GetJob/ViewDetails/822010500",
        "LocationName": "Martinsburg, West Virginia",
        "Salary": "$69,062 - $132,262 per year"
      }
    },
    {
      "type": "Feature",
      "geometry": { "type": "Point", "coordinates": [ -77.96456, 39.45637 ] },
      "properties": {
        "PositionTitle": "Registered Nurse - Wound Care -  Acute Care",
        "PositionURI": "https://www.usajobs.gov:443/GetJob/ViewDetails/822013200",
        "LocationName": "Martinsburg, West Virginia",
        "Salary": "$69,062 - $132,262 per year"
      }
    },
    {
      "type": "Feature",
      "geometry": { "type": "Point", "coordinates": [ -96.70774, 40.81362 ] },
      "properties": {
        "PositionTitle": "Licensed Practical Nurse - Primary Care",
        "PositionURI": "https://www.usajobs.gov:443/GetJob/ViewDetails/822015700",
        "LocationName": "Lincoln, Nebraska",
        "Salary": "$43,813 - $68,779 per year"
      }
    },
    {
      "type": "Feature",
      "geometry": { "type": "Point", "coordinates": [ -84.39111, 33.748314 ] },
      "properties": {
        "PositionTitle": "Emergency Department Assistant Nurse Manager",
        "PositionURI": "https://www.usajobs.gov:443/GetJob/ViewDetails/822017000",
        "LocationName": "Atlanta, Georgia",
        "Salary": "$88,703 - $155,888 per year"
      }
    },
    {
      "type": "Feature",
      "geometry": { "type": "Point", "coordinates": [ -122.4196, 37.7771 ] },
      "properties": {
        "PositionTitle": "Nurse Practitioner-Structural Heart/Cardiac Rehabilitation",
        "PositionURI": "https://www.usajobs.gov:443/GetJob/ViewDetails/822018400",
        "LocationName": "San Francisco, California",
        "Salary": "$185,720 - $246,400 per year"
      }
    },
    {
      "type": "Feature",
      "geometry": { "type": "Point", "coordinates": [ -101.83389, 35.207256 ] },
      "properties": {
        "PositionTitle": "Nursing Assistant (Float Pool)",
        "PositionURI": "https://www.usajobs.gov:443/GetJob/ViewDetails/822026100",
        "LocationName": "Amarillo, Texas",
        "Salary": "$39,046 - $57,035 per year"
      }
    },
    {
      "type": "Feature",
      "geometry": { "type": "Point", "coordinates": [ -82.63713, 30.190346 ] },
      "properties": {
        "PositionTitle": "Nurse Practitioner - Mental Health",
        "PositionURI": "https://www.usajobs.gov:443/GetJob/ViewDetails/822026200",
        "LocationName": "Lake City, Florida",
        "Salary": "$109,369 - $158,548 per year"
      }
    },
    {
      "type": "Feature",
      "geometry": { "type": "Point", "coordinates": [ -112.075775, 33.44826 ] },
      "properties": {
        "PositionTitle": "Registered Nurse, Renal Clinic",
        "PositionURI": "https://www.usajobs.gov:443/GetJob/ViewDetails/822033500",
        "LocationName": "Phoenix, Arizona",
        "Salary": "$87,330 - $161,750 per year"
      }
    },
    {
      "type": "Feature",
      "geometry": { "type": "Point", "coordinates": [ -91.67376, 41.976345 ] },
      "properties": {
        "PositionTitle": "Registered Nurse - Patient Aligned Care Team (PACT) - Outpatient",
        "PositionURI": "https://www.usajobs.gov:443/GetJob/ViewDetails/822034200",
        "LocationName": "Cedar Rapids, Iowa",
        "Salary": "$67,926 - $113,238 per year"
      }
    },
    {
      "type": "Feature",
      "geometry": { "type": "Point", "coordinates": [ -108.20569, 36.728138 ] },
      "properties": {
        "PositionTitle": "Nurse Practitioner (Farmington)",
        "PositionURI": "https://www.usajobs.gov:443/GetJob/ViewDetails/822042300",
        "LocationName": "Farmington, New Mexico",
        "Salary": "$106,518 - $182,213 per year"
      }
    },
    {
      "type": "Feature",
      "geometry": { "type": "Point", "coordinates": [ -96.78177, 46.87591 ] },
      "properties": {
        "PositionTitle": "Registered Nurse - Intensive Care Unit",
        "PositionURI": "https://www.usajobs.gov:443/GetJob/ViewDetails/822044600",
        "LocationName": "Fargo, North Dakota",
        "Salary": "$70,428 - $117,409 per year"
      }
    },
    {
      "type": "Feature",
      "geometry": { "type": "Point", "coordinates": [ -71.04706, 42.08328 ] },
      "properties": {
        "PositionTitle": "Nurse Practitioner (Palliative Care)",
        "PositionURI": "https://www.usajobs.gov:443/GetJob/ViewDetails/822084800",
        "LocationName": "Brockton, Massachusetts",
        "Salary": "$130,710 - $200,005 per year"
      }
    },
    {
      "type": "Feature",
      "geometry": { "type": "Point", "coordinates": [ -85.7664, 38.25486 ] },
      "properties": {
        "PositionTitle": "Registered Nurse - Pain Clinic Nurse Navigator",
        "PositionURI": "https://www.usajobs.gov:443/GetJob/ViewDetails/822090200",
        "LocationName": "Louisville, Kentucky",
        "Salary": "$69,727 - $125,051 per year"
      }
    },
    {
      "type": "Feature",
      "geometry": { "type": "Point", "coordinates": [ -78.3989, 40.5072 ] },
      "properties": {
        "PositionTitle": "REGISTERED NURSE - ACUTE AND LONG-TERM CARE",
        "PositionURI": "https://www.usajobs.gov:443/GetJob/ViewDetails/822111300",
        "LocationName": "Altoona, Pennsylvania",
        "Salary": "$70,368 - $138,678 per year"
      }
    },
    {
      "type": "Feature",
      "geometry": { "type": "Point", "coordinates": [ -122.67155, 45.632214 ] },
      "properties": {
        "PositionTitle": "Nurse (Home Based Primary Care/Intermittent, NTE 1yr)",
        "PositionURI": "https://www.usajobs.gov:443/GetJob/ViewDetails/822113200",
        "LocationName": "Vancouver, Washington",
        "Salary": "$91,854 - $154,434 per year"
      }
    },
    {
      "type": "Feature",
      "geometry": { "type": "Point", "coordinates": [ -84.6009, 37.0934 ] },
      "properties": {
        "PositionTitle": "Licensed Practical Nurse (PACT)",
        "PositionURI": "https://www.usajobs.gov:443/GetJob/ViewDetails/822114400",
        "LocationName": "Somerset, Kentucky",
        "Salary": "$45,777 - $76,909 per year"
      }
    },
    {
      "type": "Feature",
      "geometry": { "type": "Point", "coordinates": [ -90.18049, 32.29869 ] },
      "properties": {
        "PositionTitle": "QSI-Assistant Chief Nurse",
        "PositionURI": "https://www.usajobs.gov:443/GetJob/ViewDetails/822124100",
        "LocationName": "Jackson, Mississippi",
        "Salary": "$58,522 - $140,102 per year"
      }
    },
    {
      "type": "Feature",
      "geometry": { "type": "Point", "coordinates": [ -97.403564, 27.79635 ] },
      "properties": {
        "PositionTitle": "Registered Nurse-Patient Aligned Care Team Float",
        "PositionURI": "https://www.usajobs.gov:443/GetJob/ViewDetails/822128100",
        "LocationName": "Corpus Christi, Texas",
        "Salary": "$73,843 - $154,122 per year"
      }
    },
    {
      "type": "Feature",
      "geometry": { "type": "Point", "coordinates": [ -80.0531, 37.2937 ] },
      "properties": {
        "PositionTitle": "Registered Nurse Assistant Nurse Manager Med-Surg",
        "PositionURI": "https://www.usajobs.gov:443/GetJob/ViewDetails/822150500",
        "LocationName": "Salem, Virginia",
        "Salary": "$79,698 - $147,571 per year"
      }
    },
    {
      "type": "Feature",
      "geometry": { "type": "Point", "coordinates": [ -71.01724, 42.08317 ] },
      "properties": {
        "PositionTitle": "Licensed Practical Nurse",
        "PositionURI": "https://www.usajobs.gov:443/GetJob/ViewDetails/822164400",
        "LocationName": "Brockton, Massachusetts",
        "Salary": "$60,618 - $94,608 per year"
      }
    },
    {
      "type": "Feature",
      "geometry": { "type": "Point", "coordinates": [ -81.97531, 33.47909 ] },
      "properties": {
        "PositionTitle": "RN Performance Improvement Coordinator",
        "PositionURI": "https://www.usajobs.gov:443/GetJob/ViewDetails/822169100",
        "LocationName": "Augusta, Georgia",
        "Salary": "$74,256 - $131,200 per year"
      }
    },
    {
      "type": "Feature",
      "geometry": { "type": "Point", "coordinates": [ -79.9316, 32.781155 ] },
      "properties": {
        "PositionTitle": "Nurse Manager Specialty Surgery",
        "PositionURI": "https://www.usajobs.gov:443/GetJob/ViewDetails/822170600",
        "LocationName": "Charleston, South Carolina",
        "Salary": "$85,775 - $146,714 per year"
      }
    },
    {
      "type": "Feature",
      "geometry": { "type": "Point", "coordinates": [ -98.49462, 29.42449 ] },
      "properties": {
        "PositionTitle": "Nurse Practitioner-Wound Ostomy",
        "PositionURI": "https://www.usajobs.gov:443/GetJob/ViewDetails/822182400",
        "LocationName": "San Antonio, Texas",
        "Salary": "$134,484 - $227,148 per year"
      }
    },
    {
      "type": "Feature",
      "geometry": { "type": "Point", "coordinates": [ -101.83389, 35.207256 ] },
      "properties": {
        "PositionTitle": "Registered Nurse-Float Pool-Open Continuous Announcement",
        "PositionURI": "https://www.usajobs.gov:443/GetJob/ViewDetails/822184000",
        "LocationName": "Amarillo, Texas",
        "Salary": "$88,647 - $164,570 per year"
      }
    },
    {
      "type": "Feature",
      "geometry": { "type": "Point", "coordinates": [ -122.32945, 47.60358 ] },
      "properties": {
        "PositionTitle": "Registered Nurse - Operating Room",
        "PositionURI": "https://www.usajobs.gov:443/GetJob/ViewDetails/822187600",
        "LocationName": "Seattle, Washington",
        "Salary": "$84,976 - $156,928 per year"
      }
    },
    {
      "type": "Feature",
      "geometry": { "type": "Point", "coordinates": [ -120.9996, 37.6383 ] },
      "properties": {
        "PositionTitle": "Psychiatric Mental Health Nurse Practitioner-PCHMI",
        "PositionURI": "https://www.usajobs.gov:443/GetJob/ViewDetails/822202400",
        "LocationName": "Modesto, California",
        "Salary": "$175,422 - $233,304 per year"
      }
    },
    {
      "type": "Feature",
      "geometry": { "type": "Point", "coordinates": [ -104.813, 39.7087 ] },
      "properties": {
        "PositionTitle": "Nursing Assistant (Med Oncology)",
        "PositionURI": "https://www.usajobs.gov:443/GetJob/ViewDetails/822207000",
        "LocationName": "Aurora, Colorado",
        "Salary": "$36,699 - $59,915 per year"
      }
    },
    {
      "type": "Feature",
      "geometry": { "type": "Point", "coordinates": [ -96.7313, 43.5453 ] },
      "properties": {
        "PositionTitle": "Registered Nurse - Nursing Officer of the Day",
        "PositionURI": "https://www.usajobs.gov:443/GetJob/ViewDetails/822214700",
        "LocationName": "Sioux Falls, South Dakota",
        "Salary": "$69,101 - $121,844 per year"
      }
    },
    {
      "type": "Feature",
      "geometry": { "type": "Point", "coordinates": [ -78.89601, 35.995274 ] },
      "properties": {
        "PositionTitle": "Registered Nurse (Medical Intensive Care Unit)",
        "PositionURI": "https://www.usajobs.gov:443/GetJob/ViewDetails/822218800",
        "LocationName": "Durham, North Carolina",
        "Salary": "$80,628 - $151,006 per year"
      }
    },
    {
      "type": "Feature",
      "geometry": { "type": "Point", "coordinates": [ -81.690575, 41.504494 ] },